~Version Information
VERS.                            2.0: CWLS Log ASCII STANDARD - VERSION 2.0
WRAP.                             NO: One line per depth step
~Well Information
STRT.FT                    7736.3572: FIRST INDEX VALUE
STOP.FT                    5891.4310: LAST INDEX VALUE
STEP.FT                      -1.6666: STEP
NULL.                      -999.2500: NULL VALUE
COMP.                REPUBLIC INDUSTRIAL LLC: COMPANY
WELL.                       WDW #316: WELL
FLD.                 JESSE SINCLAIR PLANT: FIELD
LOC.                              --: LOCATION
CNTY.                        LIBERTY: COUNTY
DATE.                Mon Nov 28 19-05-02 2022: LOG DATE
STAT.                          TEXAS: STATE
~Curve Information
DEPT.FT                  0 000 00 00: Depth
LSPD.FT/MIN                        0: Line Speed
LTEN.LB                            0: Surface Line Tension
TCURR.MA                           0: Tool Current
TVOLT.V                            0: Tool Voltage
ELTIM.SEC                          0: Elapsed Time
ADPTH.FT                           0: Actual Depth
TOD.SEC                            0: Time of Day
HVOLTA.V                           0: Head Voltage Apparent
CCL.                               0: Casing Collar Locator
DET1.GAPI                          0: Tracer Detector 1
DET2.GAPI                          0: Tracer Detector 2
EJECT.                             0: Ejector Actuation
AREA.                              0: Area under Detector
~Parameter Information
BHTEMP_Src.                   1.0000: BHTEMP Input Source Selector
TUBEOD.IN                     2.0000: Tubing O.D.
TUBEID.IN                     1.7000: Tubing I.D.
CASEID.IN                     5.0120: Casing I.D.
SRFTEMP.DEGF                  0.0000: Surface Temperature
CASETHCK.IN                   0.0000: Casing Thickness
CASEOD.IN                     5.5000: Casing O.D.
MinAPIWall.IN                 0.0000: Perforation Flag
TDEPTH.FT                     0.0000: Total Depth
BOTTEMP.DEGF                100.0000: Bottom Hole Temperature
BOREID.IN                     7.8750: Borehole I.D.
~A  Depth       LSPD        LTEN       TCURR       TVOLT       ELTIM       ADPTH        TOD        HVOLTA       CCL         DET1        DET2       EJECT        AREA    
# ...
  7176.3796    -56.1200    638.7635    166.6804     75.8539    603.9603   7176.4165  62105.9609     67.5198     -0.0288     12.9063     45.2360      0.0000 106251.6172
  7174.7130    -56.1200    634.0103    166.7110     75.9143    605.7903   7174.7085  62107.7891     67.5788     -0.0630     12.5997     44.4462      0.0000 106564.5859
  7173.0464    -56.2500    660.9449    166.7110     75.9143    607.5402   7173.0581  62109.5391     67.5788      0.0145     12.5385     44.6170      0.0000 106876.0391
  7171.3798    -56.2500    637.1791    166.6804     75.8539    609.2902   7171.4248  62111.2891     67.5198      0.0069     12.3153     44.6002      0.0000 107144.0625
  7169.7132    -56.1200    638.7635    166.7110     75.9143    611.1309   7169.7085  62113.1289     67.5788      0.0175     12.2225     44.9666      0.0000 107456.3438
  7168.0466    -56.0000    640.3478    166.7110     75.9143    612.8802   7168.0669  62114.8789     67.5788     -0.0076     13.0738     46.8540      0.0000 107779.2500
  7166.3800    -56.2500    640.3478    166.6804     75.8539    614.6302   7166.4248  62116.6289     67.5198     -0.0113     13.4675     46.6896      0.0000 108060.3750
  7164.7134    -56.5000    637.1791    166.6804     75.8841    616.4602   7164.7085  62118.4609     67.5501     -0.0200     12.9220     47.1554      0.0000 108388.0156
  7163.0468    -56.2500    638.7635    166.6804     75.8841    618.2302   7163.0581  62120.2305     67.5501     -0.0006     11.7146     47.8686      0.0000 108721.7813
  7161.3802    -56.1200    637.1791    166.7110     75.8841    619.9902   7161.4165  62121.9883     67.5485      0.0085     11.7189     47.0859      0.0000 109006.7813
  7159.7136    -56.0000    635.5947    166.6499     75.8841    621.8002   7159.7168  62123.8008     67.5516     -0.0015     12.2685     45.9944      0.0000 109331.4609
  7158.0470    -55.7500    640.3478    166.7416     75.9143    623.5602   7158.0581  62125.5586     67.5772     -0.0084     11.8049     45.1106      0.0000 109650.5703
  7156.3804    -56.2500    632.4259    166.6804     75.8841    625.3303   7156.4082  62127.3281     67.5501     -0.0172     11.9717     43.9082      0.0000 109916.5938
  7154.7138    -56.0000    648.2698    166.7110     75.9445    627.1708   7154.7085  62129.1680     67.6090     -0.0093     12.3321     45.0682      0.0000 110226.5859
  7153.0472    -55.6200    649.8542    166.6804     75.9143    628.9302   7153.0669  62130.9297     67.5803     -0.0008     12.1425     48.0606      0.0000 110554.5078
  7151.3806    -55.6200    651.4386    166.6499     75.8841    630.7002   7151.4082  62132.6992     67.5516     -0.0143     12.3946     48.3050      0.0000 110845.0859
  7149.7140    -56.1200    656.1918    166.7416     75.9143    632.5103   7149.7085  62134.5078     67.5772      0.0107     12.9518     47.4213      0.0000 111178.8359
  7148.0474    -56.2500    659.3605    166.6499     75.9143    634.2802   7148.0669  62136.2773     67.5818     -0.0755     13.8199     48.2294      0.0000 111513.7578
  7146.3808    -56.0000    668.8669    166.6193     75.9143    636.0703   7146.4082  62138.0703     67.5833     -0.0114     13.7395     48.8476      0.0000 111805.2578
  7144.7142    -55.8700    672.0356    166.6499     75.9143    637.8903   7144.7085  62139.8906     67.5818     -0.0201     12.8946     48.6503      0.0000 112147.7500
  7143.0476    -56.1200    675.2045    166.8333     75.8237    639.6503   7143.0669  62141.6484     67.4820     -0.0153     12.0380     47.0065      0.0000 112481.5703
  7141.3810    -56.1200    668.8669    166.7110     75.8841    641.4202   7141.4082  62143.4180     67.5485     -0.0119     12.3308     46.5046      0.0000 112761.3047
  7139.7144    -55.8700    668.8669    166.6499     75.8237    643.2402   7139.7085  62145.2383     67.4912     -0.0056     13.4217     47.4079      0.0000 113089.6797
  7138.0478    -55.6200    667.2825    166.7110     75.8841    645.0302   7138.0581  62147.0273     67.5485     -0.0089     14.2357     47.5677      0.0000 113423.6563
  7136.3812    -55.7500    676.7888    166.7416     75.8841    646.8002   7136.4082  62148.8008     67.5470     -0.0101     15.2138     46.7877      0.0000 113706.0156
  7134.7146    -56.0000    687.8796    166.7110     75.8841    648.6203   7134.7168  62150.6211     67.5485      0.0003     14.5392     47.2311      0.0000 114034.3750
  7133.0480    -56.1200    692.6328    166.7722     75.8841    650.3802   7133.0581  62152.3789     67.5455     -0.0012     12.8438     47.8918      0.0000 114368.7734
  7131.3814    -56.0000    667.2825    166.7110     75.8539    652.1503   7131.4082  62154.1484     67.5183     -0.0217     12.2722     47.1358      0.0000 114653.2344
  7129.7148    -55.6200    678.3732    166.7110     75.8539    653.9902   7129.7251  62155.9883     67.5183     -0.0040     12.6940     48.2368      0.0000 114986.8906
  7128.0482    -55.6200    675.2045    166.6804     75.8539    655.7403   7128.0581  62157.7383     67.5198     -0.0139     12.5709     48.5008      0.0000 115326.0938
  7126.3816    -56.3700    678.3732    166.6499     75.9143    657.4911   7126.4082  62159.4883     67.5818     -0.0095     12.1696     48.6977      0.0000 115617.9922
  7124.7150    -57.1200    675.2045    166.7416     75.8841    659.2502   7124.7251  62161.2500     67.5470      0.0026     12.7653     47.5018      0.0000 115954.8594
  7123.0484    -57.5000    684.7108    166.7416     75.8539    660.9902   7123.0581  62162.9883     67.5168      0.0041     13.0319     47.0189      0.0000 116284.3125
  7121.3818    -57.1200    670.4513    166.7416     75.8841    662.7411   7121.4082  62164.7383     67.5470     -0.0047     13.0106     46.2644      0.0000 116564.8906
  7119.7152    -57.0000    675.2045    166.7416     75.8237    664.5203   7119.7168  62166.5195     67.4866     -0.0275     12.4140     44.6289      0.0000 116880.7422
  7118.0486    -56.8700    675.2045    166.7416     75.9445    666.2603   7118.0581  62168.2578     67.6074     -0.0024     11.6033     45.7596      0.0000 117197.0625
  7116.3820    -57.0000    694.2171    166.7416     75.9445    667.9803   7116.4082  62169.9805     67.6074     -0.0220     11.5407     46.0243      0.0000 117473.2891
  7114.7154    -57.1200    692.6328    166.6499     75.8841    669.7803   7114.7085  62171.7773     67.5516     -0.0211     12.3358     44.8071      0.0000 117791.1484
  7113.0488    -57.3700    689.4639    166.6804     75.8841    671.5203   7113.0581  62173.5195     67.5501     -0.0159     13.0260     44.0089      0.0000 118100.6875
  7111.3822    -56.7500    684.7108    166.7110     75.8539    673.2603   7111.4165  62175.2578     67.5183     -0.0002     12.9543     44.4654      0.0000 118365.9297
  7109.7156    -56.8700    687.8796    166.6804     75.8539    675.0502   7109.7085  62177.0508     67.5198     -0.0069     12.6546     45.7558      0.0000 118682.0938
  7108.0490    -57.1200    681.5420    166.7110     75.9143    676.7802   7108.0581  62178.7773     67.5788      0.0041     12.7237     46.9371      0.0000 119007.6875
  7106.3824    -57.0000    695.8015    166.7110     75.8841    678.5103   7106.4248  62180.5078     67.5485      0.0003     13.0409     46.3578      0.0000 119288.1016
  7104.7158    -57.1200    691.0483    166.7110     75.8841    680.3302   7104.7085  62182.3281     67.5485     -0.0272     13.4659     45.5192      0.0000 119608.1719
  7103.0492    -56.8700    673.6201    167.0474     75.7934    682.0612   7103.0581  62184.0586     67.4411      0.0114     13.1165     46.1630      0.0000 119929.5000
  7101.3826    -56.8700    678.3732    166.8028     75.8539    683.7903   7101.4165  62185.7891     67.5137      0.0110     12.6846     45.5682      0.0000 120204.8047
  7099.7160    -56.8700    684.7108    166.6804     75.8539    685.5903   7099.7085  62187.5898     67.5198     -0.2136     12.2185     45.5584      0.0000 120523.0313
  7098.0494    -56.8700    697.3859    166.6499     75.9143    687.3305   7098.0581  62189.3281     67.5818     -0.0035     12.1313     45.5866      0.0000 120842.1563
