~Version Information
VERS.                            2.0: CWLS Log ASCII STANDARD - VERSION 2.0
WRAP.                             NO: One line per depth step
~Well Information
STRT.FT                    7736.3572: FIRST INDEX VALUE
STOP.FT                    5891.4310: LAST INDEX VALUE
STEP.FT                      -1.6666: STEP
NULL.                      -999.2500: NULL VALUE
COMP.                REPUBLIC INDUSTRIAL LLC: COMPANY
WELL.                       WDW #316: WELL
FLD.                 JESSE SINCLAIR PLANT: FIELD
LOC.                              --: LOCATION
CNTY.                        LIBERTY: COUNTY
DATE.                Mon Nov 28 19-05-02 2022: LOG DATE
STAT.                          TEXAS: STATE
~Curve Information
DEPT.FT                  0 000 00 00: Depth
LSPD.FT/MIN                        0: Line Speed
LTEN.LB                            0: Surface Line Tension
TCURR.MA                           0: Tool Current
TVOLT.V                            0: Tool Voltage
ELTIM.SEC                          0: Elapsed Time
ADPTH.FT                           0: Actual Depth
TOD.SEC                            0: Time of Day
HVOLTA.V                           0: Head Voltage Apparent
CCL.                               0: Casing Collar Locator
DET1.GAPI                          0: Tracer Detector 1
DET2.GAPI                          0: Tracer Detector 2
EJECT.                             0: Ejector Actuation
AREA.                              0: Area under Detector
~Parameter Information
BHTEMP_Src.                   1.0000: BHTEMP Input Source Selector
TUBEOD.IN                     2.0000: Tubing O.D.
TUBEID.IN                     1.7000: Tubing I.D.
CASEID.IN                     5.0120: Casing I.D.
SRFTEMP.DEGF                  0.0000: Surface Temperature
CASETHCK.IN                   0.0000: Casing Thickness
CASEOD.IN                     5.5000: Casing O.D.
MinAPIWall.IN                 0.0000: Perforation Flag
TDEPTH.FT                     0.0000: Total Depth
BOTTEMP.DEGF                100.0000: Bottom Hole Temperature
BOREID.IN                     7.8750: Borehole I.D.
~A  Depth       LSPD        LTEN       TCURR       TVOLT       ELTIM       ADPTH        TOD        HVOLTA       CCL         DET1        DET2       EJECT        AREA    
# ...
  7416.3700    -57.6200    613.4132    166.6499     75.8841    350.5302   7416.3584  61852.5273     67.5516      0.0008     13.1062     45.7982      0.0000  60799.4727
  7414.7034    -57.5000    613.4132    166.6193     75.8539    352.2402   7414.7251  61854.2383     67.5229      0.0247     13.6961     45.3699      0.0000  61072.2891
  7413.0368    -57.7500    614.9976    166.6193     75.9143    353.9602   7413.0581  61855.9609     67.5833     -0.0105     14.1899     47.1137      0.0000  61394.9570
  7411.3702    -57.8700    614.9976    166.6804     75.8539    355.7202   7411.3584  61857.7188     67.5198      0.0108     14.1269     50.2140      0.0000  61738.4414
  7409.7036    -57.6200    592.8162    166.6499     75.9747    357.4302   7409.7168  61859.4297     67.6422      0.0235     13.4503     49.9703      0.0000  62039.7031
  7408.0370    -57.5000    599.1537    166.6499     75.8841    359.1603   7408.0669  61861.1602     67.5516     -0.0206     13.0214     50.5796      0.0000  62390.6016
  7406.3704    -57.5000    599.1537    166.6499     75.8841    360.9402   7406.3584  61862.9375     67.5516      0.0339     14.0462     51.3588      0.0000  62748.6992
  7404.7038    -57.2500    603.9069    166.5887     75.8237    362.6702   7404.7085  61864.6680     67.4942     -0.0204     14.2058     51.4430      0.0000  63057.0039
  7403.0372    -57.6200    626.0883    166.6193     75.9445    364.3902   7403.0581  61866.3906     67.6136     -0.0113     14.2996     51.1481      0.0000  63416.7813
  7401.3706    -57.6200    602.3225    166.6193     75.8237    366.1609   7401.3584  61868.1602     67.4927     -0.0322     14.4704     50.0643      0.0000  63770.1953
  7399.7040    -57.5000    594.4005    166.5887     75.9445    367.8903   7399.7168  61869.8906     67.6151      0.0066     13.3263     49.6118      0.0000  64068.9414
  7398.0374    -57.2500    600.7381    166.6193     75.8539    369.6211   7398.0581  61871.6211     67.5229     -0.0090     11.9084     48.1874      0.0000  64411.7539
  7396.3708    -57.5000    603.9069    166.5887     75.9143    371.3802   7396.3667  61873.3789     67.5849     -0.0005     12.1564     45.5868      0.0000  64737.9883
  7394.7042    -57.5000    607.0757    166.6499     75.9445    373.1102   7394.7085  61875.1094     67.6120      0.0002     11.7892     45.3517      0.0000  65009.8711
  7393.0376    -57.6200    610.2444    166.7722     75.8237    374.8402   7393.0581  61876.8398     67.4850     -0.0272     11.6682     45.7211      0.0000  65328.8867
  7391.3710    -57.6200    608.6600    166.7722     75.8841    376.6202   7391.3750  61878.6211     67.5455     -0.0310     11.5680     45.8929      0.0000  65649.7891
  7389.7044    -57.0000    607.0757    166.6499     75.8841    378.3507   7389.7168  61880.3516     67.5516     -0.0323     11.4311     46.2320      0.0000  65926.1563
  7388.0378    -57.1200    605.4913    166.6193     75.8539    380.0811   7388.0581  61882.0820     67.5229     -0.0366     12.0937     45.7324      0.0000  66248.7344
  7386.3712    -57.3700    607.0757    166.6804     75.9143    381.8503   7386.3667  61883.8477     67.5803      0.0264     12.2268     45.7691      0.0000  66567.7969
  7384.7046    -57.2500    613.4132    166.6193     75.9143    383.5903   7384.7085  61885.5898     67.5833      0.0082     12.1481     46.0306      0.0000  66843.9688
  7383.0380    -57.1200    610.2444    166.6193     75.8539    385.3203   7383.0581  61887.3203     67.5229     -0.0771     11.8276     45.2166      0.0000  67162.8125
  7381.3714    -57.1200    607.0757    166.6193     75.9143    387.1002   7381.3667  61889.0977     67.5833     -0.0031     12.5641     45.6160      0.0000  67480.2422
  7379.7048    -57.2500    594.4005    166.6499     75.8841    388.8302   7379.7085  61890.8281     67.5516     -0.1324     13.5279     45.8573      0.0000  67755.1484
  7378.0382    -57.5000    603.9069    166.5887     75.8841    390.5504   7378.0581  61892.5508     67.5546     -0.0070     14.1017     45.7676      0.0000  68075.8047
  7376.3716    -57.2500    613.4132    166.5581     75.9445    392.3302   7376.3667  61894.3281     67.6166     -0.0101     13.7861     45.6461      0.0000  68395.4375
  7374.7050    -57.1200    611.8289    166.5581     75.9445    394.0702   7374.7085  61896.0703     67.6166      0.0031     13.0396     46.6338      0.0000  68672.0234
  7373.0384    -57.0000    608.6600    166.5275     75.9143    395.7903   7373.0581  61897.7891     67.5879     -0.0075     12.7059     48.8730      0.0000  69007.5313
  7371.3718    -57.3700    608.6600    166.5887     75.8841    397.5702   7371.3584  61899.5703     67.5546      0.0227     12.9670     51.0425      0.0000  69358.0313
  7369.7052    -57.3700    605.4913    166.6193     75.9143    399.3002   7369.7085  61901.3008     67.5833     -0.0230     13.3882     50.9849      0.0000  69666.2891
  7368.0386    -57.5000    591.2318    166.5581     75.8841    401.0302   7368.0669  61903.0273     67.5562     -0.0146     13.3719     48.4051      0.0000  70011.0938
  7366.3720    -57.2500    613.4132    166.5581     75.8841    402.8103   7366.3584  61904.8086     67.5562     -0.0342     13.5722     50.3715      0.0000  70356.7578
  7364.7054    -57.0000    611.8289    166.5275     75.8539    404.5403   7364.7085  61906.5391     67.5275     -0.0238     13.6439     49.9562      0.0000  70659.1797
  7363.0388    -57.3700    611.8289    166.6193     75.8841    406.2603   7363.0669  61908.2578     67.5531      0.0044     13.6139     48.3887      0.0000  71001.9141
  7361.3722    -57.5000    591.2318    166.5887     75.9143    408.0503   7361.3584  61910.0508     67.5849     -0.0348     12.7814     46.8797      0.0000  71335.0156
  7359.7056    -57.2500    591.2318    166.5887     75.9445    409.7802   7359.7085  61911.7773     67.6151     -0.0029     12.5865     46.0307      0.0000  71612.6563
  7358.0390    -57.2500    595.9849    166.5581     75.9143    411.5002   7358.0752  61913.5000     67.5864     -0.0093     12.0126     46.5873      0.0000  71936.5547
  7356.3724    -57.0000    614.9976    166.5581     75.8841    413.3002   7356.3667  61915.3008     67.5562     -0.0020     11.2200     46.0881      0.0000  72262.3359
  7354.7058    -57.1200    607.0757    166.6499     75.8841    415.0202   7354.7168  61917.0195     67.5516      0.0049     12.0386     44.6718      0.0000  72533.2813
  7353.0392    -57.1200    603.9069    166.6193     75.8841    416.7702   7353.0581  61918.7695     67.5531     -0.0111     12.7613     45.0985      0.0000  72846.9297
  7351.3726    -57.2500    602.3225    166.5887     75.9143    418.5512   7351.3667  61920.5508     67.5849     -0.0021     12.5389     46.5104      0.0000  73167.7813
  7349.7060    -57.0000    600.7381    166.5275     75.8841    420.2902   7349.7085  61922.2891     67.5577      0.0134     12.6470     47.0762      0.0000  73449.5703
  7348.0394    -56.7500    602.3225    166.5887     75.9143    422.0303   7348.0669  61924.0273     67.5849     -0.0084     12.9909     47.3649      0.0000  73779.5391
  7346.3728    -57.0000    602.3225    166.5581     75.9445    423.8202   7346.3584  61925.8203     67.6166     -0.0041     14.0758     49.2763      0.0000  74117.9375
  7344.7062    -57.1200    602.3225    166.6193     75.9143    425.5602   7344.7085  61927.5586     67.5833     -0.0127     14.8494     50.2718      0.0000  74418.3906
  7343.0396    -57.0000    605.4913    166.5887     75.9445    427.3002   7343.0581  61929.3008     67.6151     -0.0569     14.7439     49.3807      0.0000  74765.8281
  7341.3730    -56.8700    603.9069    166.5887     75.9445    429.0902   7341.3584  61931.0898     67.6151     -0.0023     14.9945     51.4573      0.0000  75119.3047
  7339.7064    -56.8700    603.9069    166.5887     75.9143    430.8202   7339.7168  61932.8203     67.5849      0.0122     13.9784     51.7574      0.0000  75430.1172
  7338.0398    -57.1200    602.3225    166.5887     75.8539    432.5602   7338.0581  61934.5586     67.5244      0.0111     13.4449     50.4976      0.0000  75787.8672
