~Version Information
VERS.                            2.0: CWLS Log ASCII STANDARD - VERSION 2.0
WRAP.                             NO: One line per depth step
~Well Information
STRT.FT                    7736.3572: FIRST INDEX VALUE
STOP.FT                    5891.4310: LAST INDEX VALUE
STEP.FT                      -1.6666: STEP
NULL.                      -999.2500: NULL VALUE
COMP.                REPUBLIC INDUSTRIAL LLC: COMPANY
WELL.                       WDW #316: WELL
FLD.                 JESSE SINCLAIR PLANT: FIELD
LOC.                              --: LOCATION
CNTY.                        LIBERTY: COUNTY
DATE.                Mon Nov 28 19-05-02 2022: LOG DATE
STAT.                          TEXAS: STATE
~Curve Information
DEPT.FT                  0 000 00 00: Depth
LSPD.FT/MIN                        0: Line Speed
LTEN.LB                            0: Surface Line Tension
TCURR.MA                           0: Tool Current
TVOLT.V                            0: Tool Voltage
ELTIM.SEC                          0: Elapsed Time
ADPTH.FT                           0: Actual Depth
TOD.SEC                            0: Time of Day
HVOLTA.V                           0: Head Voltage Apparent
CCL.                               0: Casing Collar Locator
DET1.GAPI                          0: Tracer Detector 1
DET2.GAPI                          0: Tracer Detector 2
EJECT.                             0: Ejector Actuation
AREA.                              0: Area under Detector
~Parameter Information
BHTEMP_Src.                   1.0000: BHTEMP Input Source Selector
TUBEOD.IN                     2.0000: Tubing O.D.
TUBEID.IN                     1.7000: Tubing I.D.
CASEID.IN                     5.0120: Casing I.D.
SRFTEMP.DEGF                  0.0000: Surface Temperature
CASETHCK.IN                   0.0000: Casing Thickness
CASEOD.IN                     5.5000: Casing O.D.
MinAPIWall.IN                 0.0000: Perforation Flag
TDEPTH.FT                     0.0000: Total Depth
BOTTEMP.DEGF                100.0000: Bottom Hole Temperature
BOREID.IN                     7.8750: Borehole I.D.
~A  Depth       LSPD        LTEN       TCURR       TVOLT       ELTIM       ADPTH        TOD        HVOLTA       CCL         DET1        DET2       EJECT        AREA    
# ...
  6296.4148    -57.1200    599.1537    166.7722     75.9747   1523.5703   6296.4082  63025.5703     67.6361     -0.0116     11.4642     43.7105      0.0000 269284.7188
  6294.7482    -57.2500    613.4132    166.7722     75.9445   1525.2803   6294.7666  63027.2773     67.6059      0.0003     11.1131     44.5745      0.0000 269593.2813
  6293.0816    -57.3700    605.4913    166.7416     75.9445   1527.0204   6293.1084  63029.0195     67.6074     -0.0044     11.1499     44.0095      0.0000 269904.9063
  6291.4150    -57.6200    627.6727    166.7722     75.9445   1528.7903   6291.4082  63030.7891     67.6059     -0.0037     11.2880     42.8421      0.0000 270164.1875
  6289.7484    -57.5000    611.8289    166.7722     75.9445   1530.5103   6289.7749  63032.5078     67.6059     -0.0044     11.2366     43.0523      0.0000 270464.6250
  6288.0818    -57.2500    611.8289    166.7416     75.9143   1532.2603   6288.1084  63034.2578     67.5772     -0.0128     11.5056     43.5549      0.0000 270767.4063
  6286.4152    -57.1200    611.8289    166.7722     75.8841   1534.0303   6286.4082  63036.0273     67.5455     -0.0023     11.8053     45.0356      0.0000 271033.6563
  6284.7486    -57.0000    613.4132    166.8028     75.9747   1535.7603   6284.7666  63037.7578     67.6346      0.0015     12.5759     46.1493      0.0000 271354.4375
  6283.0820    -57.1200    611.8289    166.8028     75.9445   1537.5002   6283.1084  63039.5000     67.6044     -0.0093     12.2834     45.4729      0.0000 271675.2813
  6281.4154    -57.5000    632.4259    166.8639     75.9445   1539.2703   6281.4082  63041.2695     67.6013     -0.0066     12.0178     44.8418      0.0000 271945.7500
  6279.7488    -57.5000    610.2444    166.8333     76.0352   1541.0002   6279.7666  63043.0000     67.6935     -0.0072     12.2750     44.9446      0.0000 272259.5313
  6278.0822    -57.2500    611.8289    166.7722     75.9143   1542.7302   6278.1084  63044.7305     67.5757     -0.0027     12.3081     45.1587      0.0000 272575.0625
  6276.4156    -57.0000    610.2444    166.8639     75.9445   1544.5104   6276.4248  63046.5078     67.6013      0.0011     12.5248     45.2054      0.0000 272846.5000
  6274.7490    -57.2500    610.2444    166.7722     75.9445   1546.2603   6274.7583  63048.2578     67.6059     -0.0031     12.5355     44.6855      0.0000 273160.4063
  6273.0824    -57.0000    610.2444    167.0168     75.8539   1547.9902   6273.1084  63049.9883     67.5030      0.0002     12.9260     45.6683      0.0000 273476.9688
  6271.4158    -57.0000    611.8289    166.8945     75.9143   1549.7703   6271.4165  63051.7695     67.5696      0.0015     12.6319     45.2348      0.0000 273750.0625
  6269.7492    -57.3700    608.6600    166.8333     75.9445   1551.5204   6269.7583  63053.5195     67.6029      0.4247     12.0366     45.1240      0.0000 274065.5938
  6268.0826    -57.2500    610.2444    166.7110     75.9143   1553.2502   6268.1084  63055.2500     67.5788     -0.0031     12.3269     44.7044      0.0000 274380.6250
  6266.4160    -57.0000    594.4005    166.8333     75.9143   1555.0203   6266.4248  63057.0195     67.5726      0.0037     12.4842     43.5840      0.0000 274644.7813
  6264.7494    -57.3700    616.5820    166.8333     75.9747   1556.7502   6264.7583  63058.7500     67.6331     -0.0067     11.6073     43.7809      0.0000 274949.6250
  6263.0828    -57.2500    619.7508    166.7722     76.0050   1558.4802   6263.1084  63060.4805     67.6663     -0.0041     11.2837     44.7259      0.0000 275259.9375
  6261.4162    -57.2500    616.5820    166.7110     75.9445   1560.2603   6261.4248  63062.2578     67.6090     -0.0040     11.1082     45.1084      0.0000 275529.9063
  6259.7496    -57.1200    608.6600    166.7722     75.8841   1562.0002   6259.7583  63064.0000     67.5455      0.0009     11.4800     44.7758      0.0000 275844.9063
  6258.0830    -57.3700    613.4132    166.8028     75.8841   1563.7202   6258.1084  63065.7188     67.5439      0.0032     11.8350     43.8772      0.0000 276154.5000
  6256.4164    -57.3700    595.9849    166.7722     75.9445   1565.5103   6256.4082  63067.5078     67.6059     -0.0073     12.1247     43.9590      0.0000 276417.8125
  6254.7498    -57.1200    618.1664    166.7722     75.9445   1567.2303   6254.7583  63069.2305     67.6059     -0.0053     12.1254     43.1741      0.0000 276723.2188
  6253.0832    -57.2500    614.9976    166.8028     75.9747   1568.9502   6253.1084  63070.9492     67.6346     -0.0018     12.0615     43.2569      0.0000 277024.0313
  6251.4166    -57.2500    610.2444    166.8945     75.9143   1570.7402   6251.4082  63072.7383     67.5696     -0.0079     11.7869     44.6214      0.0000 277288.7500
  6249.7500    -57.3700    610.2444    166.7722     75.9143   1572.4712   6249.7583  63074.4688     67.5757     -0.0005     11.7665     44.2362      0.0000 277600.3125
  6248.0834    -57.3700    605.4913    166.8639     75.8841   1574.1903   6248.1167  63076.1875     67.5409     -0.0081     11.5047     44.9286      0.0000 277911.4375
  6246.4168    -57.3700    595.9849    166.8028     75.8841   1575.9802   6246.4082  63077.9805     67.5439     -0.0029     11.1754     45.3837      0.0000 278183.6563
  6244.7502    -57.2500    603.9069    166.8639     75.9747   1577.7108   6244.7583  63079.7109     67.6315      0.0069     11.5879     44.0472      0.0000 278495.8750
  6243.0836    -57.1200    607.0757    166.9251     75.8539   1579.4303   6243.1250  63081.4297     67.5076     -0.0041     12.3361     44.6554      0.0000 278805.2813
  6241.4170    -57.2500    629.2571    166.8639     75.9143   1581.2302   6241.4082  63083.2305     67.5711     -0.0003     13.4446     45.4042      0.0000 279076.6250
  6239.7504    -57.3700    607.0757    166.8333     75.9747   1582.9402   6239.7583  63084.9375     67.6331     -0.0027     13.5094     44.0704      0.0000 279389.6875
  6238.0838    -57.3700    600.7381    166.8639     76.0050   1584.6703   6238.1167  63086.6680     67.6618     -0.0090     12.6094     44.2216      0.0000 279697.4375
  6236.4172    -57.3700    597.5693    166.8639     75.9445   1586.4603   6236.4082  63088.4609     67.6013     -0.0104     13.0431     44.6590      0.0000 279964.6563
  6234.7506    -57.0000    603.9069    166.7722     75.9747   1588.1906   6234.7666  63090.1914     67.6361     -0.0089     12.8560     45.0395      0.0000 280278.5938
  6233.0840    -57.1200    605.4913    166.9862     75.8841   1589.9103   6233.1250  63091.9102     67.5348     -0.0098     12.6787     44.9880      0.0000 280594.0625
  6231.4174    -57.2500    605.4913    166.8639     75.9143   1591.7003   6231.4082  63093.6992     67.5711     -0.0111     12.5958     45.5539      0.0000 280865.1875
  6229.7508    -57.3700    605.4913    166.9251     75.9445   1593.4202   6229.7583  63095.4180     67.5983     -0.0063     12.3385     47.1809      0.0000 281191.0625
  6228.0842    -57.7500    594.4005    166.8639     75.8841   1595.1302   6228.1084  63097.1289     67.5409     -0.0046     12.7476     46.8891      0.0000 281521.1875
  6226.4176    -57.7500    611.8289    166.8639     75.9143   1596.9202   6226.4082  63098.9180     67.5711      0.0037     13.2584     46.6921      0.0000 281801.0625
  6224.7510    -57.3700    611.8289    166.8639     75.9445   1598.6403   6224.7666  63100.6406     67.6013     -0.0024     13.5040     48.1231      0.0000 282133.5938
  6223.0844    -57.2500    610.2444    166.8639     75.9747   1600.3810   6223.1084  63102.3789     67.6315     -0.0053     13.6040     48.3437      0.0000 282471.8438
  6221.4178    -57.3700    605.4913    166.8945     75.9143   1602.1503   6221.4165  63104.1484     67.5696     -0.0006     13.2945     48.4234      0.0000 282762.2500
  6219.7512    -57.2500    605.4913    166.8639     75.9445   1603.8702   6219.7666  63105.8711     67.6013     -0.0031     12.8264     47.7968      0.0000 283099.2500
  6218.0846    -57.3700    603.9069    166.8333     75.9445   1605.6102   6218.1167  63107.6094     67.6029     -0.0047     12.3758     46.9063      0.0000 283430.0938
