~Version Information
VERS.                            2.0: CWLS Log ASCII STANDARD - VERSION 2.0
WRAP.                             NO: One line per depth step
~Well Information
STRT.FT                    7736.3572: FIRST INDEX VALUE
STOP.FT                    5891.4310: LAST INDEX VALUE
STEP.FT                      -1.6666: STEP
NULL.                      -999.2500: NULL VALUE
COMP.                REPUBLIC INDUSTRIAL LLC: COMPANY
WELL.                       WDW #316: WELL
FLD.                 JESSE SINCLAIR PLANT: FIELD
LOC.                              --: LOCATION
CNTY.                        LIBERTY: COUNTY
DATE.                Mon Nov 28 19-05-02 2022: LOG DATE
STAT.                          TEXAS: STATE
~Curve Information
DEPT.FT                  0 000 00 00: Depth
LSPD.FT/MIN                        0: Line Speed
LTEN.LB                            0: Surface Line Tension
TCURR.MA                           0: Tool Current
TVOLT.V                            0: Tool Voltage
ELTIM.SEC                          0: Elapsed Time
ADPTH.FT                           0: Actual Depth
TOD.SEC                            0: Time of Day
HVOLTA.V                           0: Head Voltage Apparent
CCL.                               0: Casing Collar Locator
DET1.GAPI                          0: Tracer Detector 1
DET2.GAPI                          0: Tracer Detector 2
EJECT.                             0: Ejector Actuation
AREA.                              0: Area under Detector
~Parameter Information
BHTEMP_Src.                   1.0000: BHTEMP Input Source Selector
TUBEOD.IN                     2.0000: Tubing O.D.
TUBEID.IN                     1.7000: Tubing I.D.
CASEID.IN                     5.0120: Casing I.D.
SRFTEMP.DEGF                  0.0000: Surface Temperature
CASETHCK.IN                   0.0000: Casing Thickness
CASEOD.IN                     5.5000: Casing O.D.
MinAPIWall.IN                 0.0000: Perforation Flag
TDEPTH.FT                     0.0000: Total Depth
BOTTEMP.DEGF                100.0000: Bottom Hole Temperature
BOREID.IN                     7.8750: Borehole I.D.
~A  Depth       LSPD        LTEN       TCURR       TVOLT       ELTIM       ADPTH        TOD        HVOLTA       CCL         DET1        DET2       EJECT        AREA    
# ...
  6536.4052    -57.7500    546.8688    166.8639     75.9143   1275.8303   6536.4082  62777.8281     67.5711     -0.0070     13.0668     48.3831      0.0000 225090.3438
  6534.7386    -57.7500    546.8688    166.8028     75.8841   1277.5503   6534.7666  62779.5508     67.5439     -0.0058     13.6351     48.3212      0.0000 225429.4219
  6533.0720    -57.3700    545.2844    166.8333     75.8841   1279.3302   6533.0581  62781.3281     67.5424      0.0002     13.0610     47.5998      0.0000 225764.9219
  6531.4054    -57.8700    545.2844    166.8333     75.9143   1281.0403   6531.4082  62783.0391     67.5726     -0.0093     13.0641     47.0255      0.0000 226048.1719
  6529.7388    -57.6200    545.2844    166.8945     75.9143   1282.7610   6529.7666  62784.7617     67.5696     -0.0165     13.4604     46.8767      0.0000 226377.2188
  6528.0722    -57.6200    545.2844    166.8639     75.9143   1284.5204   6528.0581  62786.5195     67.5711      0.0111     13.0292     45.7813      0.0000 226700.9219
  6526.4056    -57.6200    542.1157    166.8639     75.8841   1286.2404   6526.4165  62788.2383     67.5409     -0.0171     13.6783     45.4597      0.0000 226974.2188
  6524.7390    -57.6200    543.7001    166.8639     75.8841   1287.9607   6524.7666  62789.9609     67.5409     -0.0087     13.6482     45.3441      0.0000 227291.8438
  6523.0724    -57.3700    542.1157    166.9557     75.8841   1289.7306   6523.0581  62791.7305     67.5363     -0.0006     12.4066     45.9137      0.0000 227611.0156
  6521.4058    -58.0000    542.1157    167.0474     75.9143   1291.4402   6521.4165  62793.4375     67.5619     -0.0101     12.5033     46.2209      0.0000 227888.2656
  6519.7392    -57.6200    562.7127    167.0168     75.8841   1293.1702   6519.7749  62795.1680     67.5332     -0.0017     12.9385     44.7283      0.0000 228206.0781
  6518.0726    -57.3700    542.1157    166.9557     75.8841   1294.9402   6518.0581  62796.9375     67.5363     -0.0285     12.9728     45.6741      0.0000 228521.1250
  6516.4060    -57.5000    542.1157    166.9557     75.8539   1296.6803   6516.4082  62798.6797     67.5061     -0.0084     12.8779     46.4510      0.0000 228798.8281
  6514.7394    -57.7500    540.5313    166.9862     75.9143   1298.3802   6514.7666  62800.3789     67.5650     -0.0047     13.0477     45.9208      0.0000 229122.2188
  6513.0728    -57.6200    543.7001    166.9251     75.9445   1300.1602   6513.0581  62802.1602     67.5983     -0.0032     13.6489     44.8854      0.0000 229439.3125
  6511.4062    -57.8700    545.2844    166.9251     75.9143   1301.8708   6511.4082  62803.8711     67.5680     -0.0153     14.0627     45.5448      0.0000 229710.1250
  6509.7396    -57.7500    543.7001    166.8945     75.9445   1303.5803   6509.7666  62805.5781     67.5998     -0.0064     13.9906     45.8974      0.0000 230031.6719
  6508.0730    -57.5000    542.1157    166.9557     75.8539   1305.3602   6508.0581  62807.3594     67.5061     -0.0194     13.0666     45.6974      0.0000 230351.0000
  6506.4064    -57.6200    545.2844    166.9862     75.9143   1307.0702   6506.4165  62809.0703     67.5650     -0.0171     12.9536     47.4427      0.0000 230631.0156
  6504.7398    -57.6200    546.8688    166.9251     75.8841   1308.7803   6504.7583  62810.7773     67.5378     -0.0006     13.0165     47.2853      0.0000 230964.6094
  6503.0732    -57.8700    559.5439    166.8945     75.9143   1310.5203   6503.0581  62812.5195     67.5696     -0.0050     13.0965     46.4010      0.0000 231290.6250
  6501.4066    -58.0000    540.5313    166.8945     75.9143   1312.2402   6501.4248  62814.2383     67.5696     -0.0029     12.9775     48.0566      0.0000 231574.2031
  6499.7400    -58.0000    542.1157    166.9251     75.9747   1313.9602   6499.7583  62815.9609     67.6285      0.0101     13.1438     48.9081      0.0000 231915.3750
  6498.0734    -57.6200    542.1157    166.8639     75.9747   1315.7102   6498.0581  62817.7109     67.6315     -0.0003     13.3487     48.3974      0.0000 232256.4219
  6496.4068    -57.6200    542.1157    166.8333     75.9143   1317.4303   6496.4165  62819.4297     67.5726     -0.0018     12.9962     47.0499      0.0000 232542.1250
  6494.7402    -57.8700    543.7001    166.8028     75.9143   1319.1403   6494.7583  62821.1406     67.5742      0.0003     12.8793     46.4658      0.0000 232868.0625
  6493.0736    -57.8700    538.9469    166.7722     75.8841   1320.9103   6493.0581  62822.9102     67.5455     -0.0101     12.6155     46.5479      0.0000 233194.5000
  6491.4070    -57.8700    540.5313    166.8639     75.9143   1322.6302   6491.4165  62824.6289     67.5711     -0.0093     12.0482     45.8624      0.0000 233470.8594
  6489.7404    -57.7500    542.1157    166.8639     75.9143   1324.3303   6489.7583  62826.3281     67.5711     -0.0021     11.7023     47.3361      0.0000 233796.9688
  6488.0738    -57.8700    540.5313    166.8333     75.9445   1326.0903   6488.0669  62828.0898     67.6029     -0.0165     12.1220     48.2161      0.0000 234132.8281
  6486.4072    -57.8700    540.5313    166.8333     75.9445   1327.7903   6486.4248  62829.7891     67.6029     -0.0008     12.2032     47.6005      0.0000 234420.4844
  6484.7406    -57.8700    554.7908    166.8639     75.9445   1329.5403   6484.7583  62831.5391     67.6013     -0.0072     12.4177     45.8025      0.0000 234747.0781
  6483.0740    -57.5000    551.6220    166.8333     75.9445   1331.3003   6483.0581  62833.3008     67.6029      0.0000     12.4393     44.1981      0.0000 235060.2656
  6481.4074    -57.5000    548.4532    166.8028     75.9445   1333.0303   6481.4082  62835.0273     67.6044     -0.0008     12.6795     44.5937      0.0000 235326.1719
  6479.7408    -58.0000    545.2844    166.8028     75.9143   1334.7203   6479.7583  62836.7188     67.5742     -0.0046     12.6295     45.6835      0.0000 235642.6875
  6478.0742    -58.0000    546.8688    166.9557     75.8237   1336.4702   6478.0752  62838.4688     67.4759     -0.0041     11.9769     47.0267      0.0000 235967.7500
  6476.4076    -58.0000    550.0376    166.8333     75.8841   1338.1903   6476.4082  62840.1875     67.5424      0.0002     12.1138     47.0521      0.0000 236251.0313
  6474.7410    -57.8700    551.6220    166.7722     75.9445   1339.9104   6474.7583  62841.9102     67.6059      0.0847     12.4037     46.0763      0.0000 236575.7813
  6473.0744    -58.1200    551.6220    166.8028     75.9445   1341.6602   6473.0669  62843.6602     67.6044     -0.0085     12.5268     47.0124      0.0000 236901.1250
  6471.4078    -58.1200    551.6220    166.7416     75.9747   1343.3602   6471.4082  62845.3594     67.6376     -0.0105     12.6041     47.9146      0.0000 237187.0156
  6469.7412    -58.1200    545.2844    166.8028     75.9747   1345.0702   6469.7583  62847.0703     67.6346      0.0079     12.3749     46.7058      0.0000 237518.5781
  6468.0746    -58.5000    542.1157    166.7722     75.9747   1346.8102   6468.0669  62848.8086     67.6361      0.0026     12.4752     46.1561      0.0000 237841.9375
  6466.4080    -57.8700    542.1157    166.7110     75.9445   1348.5303   6466.4082  62850.5273     67.6090     -0.0127     12.3711     46.8461      0.0000 238121.4219
  6464.7414    -57.7500    561.1284    166.7722     75.9747   1350.2402   6464.7583  62852.2383     67.6361     -0.0017     12.3236     46.4035      0.0000 238448.1094
  6463.0748    -57.8700    569.0503    166.7722     75.9445   1351.9902   6463.0669  62853.9883     67.6059     -0.0093     11.7837     46.3028      0.0000 238772.3594
  6461.4082    -57.8700    548.4532    166.7416     75.8841   1353.6910   6461.4082  62855.6914     67.5470      0.0018     11.3873     45.5873      0.0000 239048.0313
  6459.7416    -58.0000    543.7001    166.7110     75.9747   1355.4005   6459.7583  62857.3984     67.6392     -0.0146     11.8951     44.5725      0.0000 239362.8750
  6458.0750    -58.1200    542.1157    166.7110     75.9445   1357.1102   6458.1167  62859.1094     67.6090      0.0003     12.5229     44.8617      0.0000 239674.8906
