~Version Information
VERS.                            2.0: CWLS Log ASCII STANDARD - VERSION 2.0
WRAP.                             NO: One line per depth step
~Well Information
STRT.FT                    7736.3572: FIRST INDEX VALUE
STOP.FT                    5891.4310: LAST INDEX VALUE
STEP.FT                      -1.6666: STEP
NULL.                      -999.2500: NULL VALUE
COMP.                REPUBLIC INDUSTRIAL LLC: COMPANY
WELL.                       WDW #316: WELL
FLD.                 JESSE SINCLAIR PLANT: FIELD
LOC.                              --: LOCATION
CNTY.                        LIBERTY: COUNTY
DATE.                Mon Nov 28 19-05-02 2022: LOG DATE
STAT.                          TEXAS: STATE
~Curve Information
DEPT.FT                  0 000 00 00: Depth
LSPD.FT/MIN                        0: Line Speed
LTEN.LB                            0: Surface Line Tension
TCURR.MA                           0: Tool Current
TVOLT.V                            0: Tool Voltage
ELTIM.SEC                          0: Elapsed Time
ADPTH.FT                           0: Actual Depth
TOD.SEC                            0: Time of Day
HVOLTA.V                           0: Head Voltage Apparent
CCL.                               0: Casing Collar Locator
DET1.GAPI                          0: Tracer Detector 1
DET2.GAPI                          0: Tracer Detector 2
EJECT.                             0: Ejector Actuation
AREA.                              0: Area under Detector
~Parameter Information
BHTEMP_Src.                   1.0000: BHTEMP Input Source Selector
TUBEOD.IN                     2.0000: Tubing O.D.
TUBEID.IN                     1.7000: Tubing I.D.
CASEID.IN                     5.0120: Casing I.D.
SRFTEMP.DEGF                  0.0000: Surface Temperature
CASETHCK.IN                   0.0000: Casing Thickness
CASEOD.IN                     5.5000: Casing O.D.
MinAPIWall.IN                 0.0000: Perforation Flag
TDEPTH.FT                     0.0000: Total Depth
BOTTEMP.DEGF                100.0000: Bottom Hole Temperature
BOREID.IN                     7.8750: Borehole I.D.
~A  Depth       LSPD        LTEN       TCURR       TVOLT       ELTIM       ADPTH        TOD        HVOLTA       CCL         DET1        DET2       EJECT        AREA    
# ...
  7496.3668    -56.7500    668.8669    166.6193     75.9445    267.3402   7496.3750  61769.3398     67.6136     -0.0015     13.3245     48.9722      0.0000  45898.7813
  7494.7002    -57.1200    654.6074    166.4969     75.9445    269.0802   7494.7085  61771.0781     67.6197      0.0461     12.9786     47.4351      0.0000  46187.0664
  7493.0336    -57.1200    659.3605    166.6193     75.8539    270.8102   7493.0581  61772.8086     67.5229     -0.0082     12.1561     46.4796      0.0000  46514.7500
  7491.3670    -56.8700    646.6854    166.5581     75.9143    272.6002   7491.3750  61774.5977     67.5864     -0.0296     11.6896     46.3088      0.0000  46839.0273
  7489.7004    -56.8700    648.2698    166.6193     75.8841    274.3502   7489.7085  61776.3477     67.5531      0.0313     11.8732     46.4163      0.0000  47117.5352
  7488.0338    -56.8700    645.1010    166.6193     75.8841    276.0802   7488.0581  61778.0781     67.5531     -0.0230     12.0154     44.6593      0.0000  47436.4063
  7486.3672    -57.3700    645.1010    166.6499     75.8841    277.8402   7486.3750  61779.8398     67.5516     -0.0208     11.7596     44.4433      0.0000  47745.9570
  7484.7006    -57.6200    640.3478    166.5887     75.8841    279.5502   7484.7085  61781.5508     67.5546     -0.0151     11.8138     45.7399      0.0000  48017.5898
  7483.0340    -58.2500    640.3478    166.5581     75.9445    281.2502   7483.0581  61783.2500     67.6166     -0.0246     12.3438     45.0856      0.0000  48335.9141
  7481.3674    -57.8700    641.9323    166.5581     75.8237    283.0203   7481.3667  61785.0195     67.4958     -0.0273     12.4413     46.3290      0.0000  48654.6484
  7479.7008    -57.6200    654.6074    166.6499     75.9143    284.7303   7479.7168  61786.7305     67.5818      0.0027     12.4251     47.3413      0.0000  48937.3828
  7478.0342    -57.8700    654.6074    166.5887     75.8539    286.4402   7478.0581  61788.4375     67.5244     -0.0194     11.8419     45.6705      0.0000  49263.0547
  7476.3676    -58.1200    640.3478    166.8333     75.7934    288.2003   7476.3667  61790.1992     67.4518      0.0333     11.4555     44.8596      0.0000  49577.6758
  7474.7010    -58.0000    638.7635    166.6193     75.9143    289.9211   7474.7085  61791.9219     67.5833     -0.0182     11.9398     46.4768      0.0000  49852.0898
  7473.0344    -57.8700    637.1791    166.6804     75.8841    291.6312   7473.0581  61793.6289     67.5501      0.4079     12.8366     47.5622      0.0000  50182.5078
  7471.3678    -57.6200    637.1791    166.6193     75.9143    293.3903   7471.3667  61795.3906     67.5833      0.0160     13.1819     48.2567      0.0000  50518.3164
  7469.7012    -57.8700    656.1918    166.5887     75.9143    295.1106   7469.7085  61797.1094     67.5849     -0.0160     13.3004     49.1205      0.0000  50810.5313
  7468.0346    -58.0000    632.4259    166.6193     75.8539    296.8102   7468.0581  61798.8086     67.5229     -0.0214     13.4238     49.2097      0.0000  51156.5039
  7466.3680    -58.0000    619.7508    166.5887     75.9143    298.5702   7466.3584  61800.5703     67.5849      0.0064     12.4706     48.2432      0.0000  51496.1133
  7464.7014    -57.8700    621.3352    166.6193     75.8539    300.2810   7464.7168  61802.2813     67.5229      0.0121     12.1133     48.0847      0.0000  51785.2656
  7463.0348    -57.7500    632.4259    166.6193     75.9143    302.0003   7463.0669  61804.0000     67.5833      0.0401     13.0247     47.1820      0.0000  52118.5977
  7461.3682    -57.7500    630.8415    166.5887     75.8841    303.7602   7461.3667  61805.7578     67.5546     -0.1035     14.0142     46.6412      0.0000  52445.7813
  7459.7016    -57.8700    629.2571    166.5581     75.9143    305.4702   7459.7085  61807.4688     67.5864      0.0253     14.4027     47.8404      0.0000  52729.1094
  7458.0350    -57.8700    629.2571    166.5581     75.8539    307.1808   7458.0752  61809.1797     67.5260     -0.0146     15.1963     49.7179      0.0000  53072.2266
  7456.3684    -57.7500    624.5040    166.6193     75.9143    308.9503   7456.3584  61810.9492     67.5833     -0.0095     15.6312     49.1731      0.0000  53419.2930
  7454.7018    -57.8700    624.5040    166.5887     75.9445    310.6502   7454.7085  61812.6484     67.6151      0.0383     13.9604     48.6247      0.0000  53711.9766
  7453.0352    -58.0000    626.0883    166.5887     75.9445    312.3606   7453.0669  61814.3594     67.6151     -0.0238     12.6209     48.8021      0.0000  54052.6602
  7451.3686    -57.7500    646.6854    166.5581     75.9143    314.1402   7451.3584  61816.1406     67.5864      0.0125     13.3910     49.1851      0.0000  54396.3398
  7449.7020    -57.7500    640.3478    166.6193     75.8539    315.8402   7449.7085  61817.8398     67.5229     -0.0069     14.1355     47.8598      0.0000  54687.5742
  7448.0354    -57.7500    619.7508    166.6193     75.9445    317.5503   7448.0669  61819.5508     67.6136     -0.0272     13.4282     46.8568      0.0000  55016.7344
  7446.3688    -57.8700    619.7508    166.5887     75.8841    319.3202   7446.3584  61821.3203     67.5546     -0.0304     12.2623     48.7100      0.0000  55352.0313
  7444.7022    -58.0000    622.9196    166.5887     75.9445    321.0302   7444.7085  61823.0273     67.6151     -0.0938     12.3832     48.2606      0.0000  55643.8516
  7443.0356    -58.0000    624.5040    166.5581     75.8237    322.7303   7443.0752  61824.7305     67.4958      0.0357     12.7045     46.3565      0.0000  55974.5391
  7441.3690    -57.8700    637.1791    166.5887     75.9143    324.5102   7441.3584  61826.5078     67.5849      0.0073     13.1260     44.5600      0.0000  56290.7578
  7439.7024    -57.5000    621.3352    166.5887     75.9747    326.2402   7439.7085  61828.2383     67.6453      0.1172     12.9493     44.6616      0.0000  56558.1641
  7438.0358    -57.5000    622.9196    166.5581     75.9143    327.9502   7438.0581  61829.9492     67.5864      0.0906     11.9654     44.2852      0.0000  56869.7578
  7436.3692    -57.5000    621.3352    167.4755     75.5819    329.7203   7436.3584  61831.7188     67.2081      0.0146     11.5831     44.1869      0.0000  57178.8281
  7434.7026    -57.8700    621.3352    166.8028     75.8237    331.4303   7434.7085  61833.4297     67.4835     -0.0162     11.6895     44.5476      0.0000  57445.1563
  7433.0360    -57.7500    624.5040    166.6499     75.9143    333.1411   7433.0752  61835.1406     67.5818      0.1173     12.1285     44.8946      0.0000  57758.5234
  7431.3694    -57.5000    621.3352    166.6193     75.8841    334.9203   7431.3667  61836.9180     67.5531     -0.0041     12.6036     45.1725      0.0000  58073.7695
  7429.7028    -57.6200    610.2444    166.6193     75.9143    336.6402   7429.7168  61838.6406     67.5833      0.0003     12.5081     45.4514      0.0000  58345.9492
  7428.0362    -57.6200    610.2444    166.6193     75.8841    338.3502   7428.0581  61840.3477     67.5531     -0.0266     12.0571     44.8758      0.0000  58662.2891
  7426.3696    -57.7500    603.9069    166.5581     75.8841    340.1202   7426.3584  61842.1211     67.5562      0.0105     12.5937     44.5250      0.0000  58974.6172
  7424.7030    -57.8700    610.2444    166.5581     75.9445    341.8302   7424.7168  61843.8281     67.6166     -0.0114     12.9245     44.4723      0.0000  59241.4688
  7423.0364    -57.6200    613.4132    166.6193     75.8539    343.5603   7423.0581  61845.5586     67.5229     -0.0006     12.0954     45.1760      0.0000  59554.9961
  7421.3698    -57.6200    613.4132    166.6499     75.8237    345.3302   7421.3584  61847.3281     67.4912     -0.0403     12.0193     46.1807      0.0000  59875.7305
  7419.7032    -57.6200    614.9976    166.5581     75.8841    347.0302   7419.7168  61849.0273     67.5562     -0.0337     12.7430     46.1223      0.0000  60152.7695
  7418.0366    -57.7500    594.4005    166.6193     75.9143    348.7502   7418.0669  61850.7500     67.5833     -0.0244     12.9237     46.3732      0.0000  60476.5625
