~Version Information
VERS.                            2.0: CWLS Log ASCII STANDARD - VERSION 2.0
WRAP.                             NO: One line per depth step
~Well Information
STRT.FT                    7736.3572: FIRST INDEX VALUE
STOP.FT                    5891.4310: LAST INDEX VALUE
STEP.FT                      -1.6666: STEP
NULL.                      -999.2500: NULL VALUE
COMP.                REPUBLIC INDUSTRIAL LLC: COMPANY
WELL.                       WDW #316: WELL
FLD.                 JESSE SINCLAIR PLANT: FIELD
LOC.                              --: LOCATION
CNTY.                        LIBERTY: COUNTY
DATE.                Mon Nov 28 19-05-02 2022: LOG DATE
STAT.                          TEXAS: STATE
~Curve Information
DEPT.FT                  0 000 00 00: Depth
LSPD.FT/MIN                        0: Line Speed
LTEN.LB                            0: Surface Line Tension
TCURR.MA                           0: Tool Current
TVOLT.V                            0: Tool Voltage
ELTIM.SEC                          0: Elapsed Time
ADPTH.FT                           0: Actual Depth
TOD.SEC                            0: Time of Day
HVOLTA.V                           0: Head Voltage Apparent
CCL.                               0: Casing Collar Locator
DET1.GAPI                          0: Tracer Detector 1
DET2.GAPI                          0: Tracer Detector 2
EJECT.                             0: Ejector Actuation
AREA.                              0: Area under Detector
~Parameter Information
BHTEMP_Src.                   1.0000: BHTEMP Input Source Selector
TUBEOD.IN                     2.0000: Tubing O.D.
TUBEID.IN                     1.7000: Tubing I.D.
CASEID.IN                     5.0120: Casing I.D.
SRFTEMP.DEGF                  0.0000: Surface Temperature
CASETHCK.IN                   0.0000: Casing Thickness
CASEOD.IN                     5.5000: Casing O.D.
MinAPIWall.IN                 0.0000: Perforation Flag
TDEPTH.FT                     0.0000: Total Depth
BOTTEMP.DEGF                100.0000: Bottom Hole Temperature
BOREID.IN                     7.8750: Borehole I.D.
~A  Depth       LSPD        LTEN       TCURR       TVOLT       ELTIM       ADPTH        TOD        HVOLTA       CCL         DET1        DET2       EJECT        AREA    
# ...
  6456.4084    -57.7500    548.4532    166.7416     75.9445   1358.8802   6456.4082  62860.8789     67.6074     -0.0011     12.8860     46.0283      0.0000 239948.1250
  6454.7418    -57.5000    581.7254    166.7722     75.9747   1360.6111   6454.7583  62862.6094     67.6361      0.0011     12.8873     46.8599      0.0000 240274.0781
  6453.0752    -57.5000    610.2444    166.8028     75.9445   1362.3202   6453.1167  62864.3203     67.6044     -0.0027     12.7934     47.4843      0.0000 240604.7500
  6451.4086    -57.8700    605.4913    166.7722     75.9445   1364.0803   6451.4082  62866.0781     67.6059      0.0006     12.5260     46.8811      0.0000 240888.1719
  6449.7420    -58.1200    605.4913    166.7416     76.0050   1365.7803   6449.7666  62867.7773     67.6679      0.0011     12.4918     46.3113      0.0000 241213.4063
  6448.0754    -57.7500    602.3225    166.6804     75.9747   1367.5103   6448.1167  62869.5078     67.6407     -0.0040     12.9495     45.4916      0.0000 241534.9688
  6446.4088    -57.6200    600.7381    166.7416     75.9747   1369.2708   6446.4165  62871.2695     67.6376     -0.0047     12.9760     44.7914      0.0000 241804.9375
  6444.7422    -57.8700    607.0757    166.7416     75.9747   1370.9905   6444.7583  62872.9883     67.6376     -0.0032     12.6952     45.2793      0.0000 242120.1875
  6443.0756    -57.8700    613.4132    166.7722     76.0352   1372.6903   6443.1084  62874.6875     67.6966      0.0018     11.9611     45.3422      0.0000 242437.6875
  6441.4090    -57.6200    591.2318    166.7722     75.9445   1374.4712   6441.4165  62876.4688     67.6059      0.0002     12.3340     45.2646      0.0000 242709.4063
  6439.7424    -57.6200    597.5693    166.7416     75.9143   1376.1903   6439.7666  62878.1875     67.5772     -0.0047     12.7049     44.9897      0.0000 243025.6563
  6438.0758    -57.6200    592.8162    166.8028     75.9143   1377.9103   6438.1084  62879.9102     67.5742     -0.0090     12.8964     44.0017      0.0000 243336.5156
  6436.4092    -57.8700    597.5693    166.7722     75.9747   1379.6703   6436.4082  62881.6680     67.6361     -0.0023     12.7621     44.4682      0.0000 243601.3125
  6434.7426    -58.2500    618.1664    167.0780     75.8237   1381.3610   6434.7583  62883.3594     67.4698     -0.0140     12.7831     45.4521      0.0000 243916.9375
  6433.0760    -58.1200    599.1537    166.8028     75.9143   1383.0605   6433.1167  62885.0586     67.5742      0.0056     13.7728     47.6301      0.0000 244242.5313
  6431.4094    -58.0000    599.1537    166.7722     75.9445   1384.8203   6431.4082  62886.8203     67.6059      0.1573     13.8669     49.0574      0.0000 244534.3125
  6429.7428    -58.2500    600.7381    166.7416     75.9143   1386.5303   6429.7666  62888.5273     67.5772      0.0035     13.7851     50.0159      0.0000 244881.0938
  6428.0762    -58.2500    600.7381    166.7416     75.9747   1388.2402   6428.1084  62890.2383     67.6376     -0.0043     12.7227     49.6366      0.0000 245231.6875
  6426.4096    -58.1200    619.7508    166.8028     75.9747   1389.9802   6426.4165  62891.9805     67.6346     -0.0108     12.0175     47.6777      0.0000 245522.4219
  6424.7430    -58.1200    599.1537    166.7416     75.9143   1391.6902   6424.7749  62893.6875     67.5772     -0.0047     12.5764     46.9132      0.0000 245852.4688
  6423.0764    -57.8700    619.7508    166.7722     75.9445   1393.4003   6423.1167  62895.3984     67.6059     -0.0053     12.4530     46.0828      0.0000 246177.8594
  6421.4098    -57.7500    595.9849    166.8028     75.9445   1395.1611   6421.4082  62897.1602     67.6044     -0.0052     12.1660     45.1888      0.0000 246451.0625
  6419.7432    -58.0000    595.9849    166.8028     75.9747   1396.8702   6419.7666  62898.8711     67.6346     -0.0073     12.1063     44.9840      0.0000 246766.2656
  6418.0766    -58.0000    597.5693    166.7416     75.9747   1398.5702   6418.1167  62900.5703     67.6376      0.0002     11.9216     44.9046      0.0000 247080.5156
  6416.4100    -58.0000    616.5820    166.7416     75.9445   1400.3502   6416.4082  62902.3477     67.6074     -0.0049     12.0079     45.5955      0.0000 247352.0313
  6414.7434    -57.7500    611.8289    166.7722     75.9445   1402.0503   6414.7666  62904.0508     67.6059      0.0002     11.9403     47.0811      0.0000 247676.9688
  6413.0768    -57.7500    610.2444    166.7722     75.8841   1403.7502   6413.1084  62905.7500     67.5455     -0.0020     12.0478     47.0567      0.0000 248008.2188
  6411.4102    -58.0000    610.2444    166.7722     75.9143   1405.5203   6411.4082  62907.5195     67.5757      0.0081     12.2375     45.2453      0.0000 248284.4375
  6409.7436    -57.7500    611.8289    166.7722     75.9143   1407.2502   6409.7583  62909.2500     67.5757      0.0006     12.1678     43.8794      0.0000 248594.7500
  6408.0770    -57.7500    610.2444    166.8028     75.9445   1408.9608   6408.1084  62910.9609     67.6044     -0.0084     12.2073     44.5806      0.0000 248903.4688
  6406.4104    -57.6200    622.9196    166.8639     75.8841   1410.7302   6406.4082  62912.7305     67.5409     -0.0075     11.9175     45.3542      0.0000 249174.3281
  6404.7438    -57.5000    624.5040    166.8028     75.9747   1412.4402   6404.7583  62914.4375     67.6346     -0.0034     11.9357     45.4508      0.0000 249491.8750
  6403.0772    -58.1200    611.8289    166.8333     75.9747   1414.1403   6403.1084  62916.1406     67.6331      0.0104     12.4656     45.3265      0.0000 249810.2813
  6401.4106    -58.0000    614.9976    166.8333     75.9143   1415.8903   6401.4165  62917.8906     67.5726     -0.0067     13.1445     45.2271      0.0000 250081.2656
  6399.7440    -58.1200    618.1664    166.8028     75.9143   1417.6002   6399.7583  62919.5977     67.5742     -0.0101     13.4067     46.0748      0.0000 250401.4844
  6398.0774    -57.8700    619.7508    166.8028     75.9445   1419.3203   6398.1084  62921.3203     67.6044     -0.0066     13.3219     46.4084      0.0000 250725.2031
  6396.4108    -58.0000    616.5820    167.3532     75.7028   1421.0603   6396.4165  62923.0586     67.3351     -0.0027     12.4918     46.7878      0.0000 251005.2188
  6394.7442    -57.8700    624.5040    166.9251     75.9445   1422.7703   6394.7583  62924.7695     67.5983     -0.0056     12.5561     46.2851      0.0000 251331.2031
  6393.0776    -58.3700    626.0883    166.8945     75.9445   1424.4603   6393.1084  62926.4609     67.5998     -0.0151     13.6339     45.6395      0.0000 251652.1719
  6391.4110    -58.7500    624.5040    166.8028     75.9747   1426.1903   6391.4248  62928.1875     67.6346     -0.0046     13.8288     46.2418      0.0000 251927.7500
  6389.7444    -58.5000    622.9196    166.8028     75.9445   1427.8802   6389.7583  62929.8789     67.6044      0.0012     13.1474     46.1146      0.0000 252251.7656
  6388.0778    -58.8700    624.5040    166.7416     75.9445   1429.5503   6388.1084  62931.5508     67.6074     -0.0056     13.3628     46.5251      0.0000 252575.3125
  6386.4112    -59.1200    619.7508    166.7722     75.9445   1431.2703   6386.4165  62933.2695     67.6059     -0.0032     13.9518     47.4441      0.0000 252857.6094
  6384.7446    -59.3700    618.1664    166.7722     75.9445   1432.9402   6384.7583  62934.9375     67.6059     -0.0066     13.4909     47.8426      0.0000 253192.5625
  6383.0780    -59.2500    618.1664    166.7416     75.9747   1434.6002   6383.1167  62936.5977     67.6376     -0.0067     12.1065     45.9263      0.0000 253520.3125
  6381.4114    -59.1200    618.1664    166.7722     75.9747   1436.3302   6381.4248  62938.3281     67.6361     -0.0038     11.6534     45.1492      0.0000 253792.4219
  6379.7448    -59.0000    614.9976    166.8333     75.9143   1438.0103   6379.7666  62940.0078     67.5726     -0.0087     12.4770     45.2479      0.0000 254108.7031
  6378.0782    -59.1200    616.5820    166.7416     75.9747   1439.6802   6378.1084  62941.6797     67.6376     -0.0095     13.1002     44.8688      0.0000 254424.5313
