~Version Information
VERS.                            2.0: CWLS Log ASCII STANDARD - VERSION 2.0
WRAP.                             NO: One line per depth step
~Well Information
STRT.FT                    7736.3572: FIRST INDEX VALUE
STOP.FT                    5891.4310: LAST INDEX VALUE
STEP.FT                      -1.6666: STEP
NULL.                      -999.2500: NULL VALUE
COMP.                REPUBLIC INDUSTRIAL LLC: COMPANY
WELL.                       WDW #316: WELL
FLD.                 JESSE SINCLAIR PLANT: FIELD
LOC.                              --: LOCATION
CNTY.                        LIBERTY: COUNTY
DATE.                Mon Nov 28 19-05-02 2022: LOG DATE
STAT.                          TEXAS: STATE
~Curve Information
DEPT.FT                  0 000 00 00: Depth
LSPD.FT/MIN                        0: Line Speed
LTEN.LB                            0: Surface Line Tension
TCURR.MA                           0: Tool Current
TVOLT.V                            0: Tool Voltage
ELTIM.SEC                          0: Elapsed Time
ADPTH.FT                           0: Actual Depth
TOD.SEC                            0: Time of Day
HVOLTA.V                           0: Head Voltage Apparent
CCL.                               0: Casing Collar Locator
DET1.GAPI                          0: Tracer Detector 1
DET2.GAPI                          0: Tracer Detector 2
EJECT.                             0: Ejector Actuation
AREA.                              0: Area under Detector
~Parameter Information
BHTEMP_Src.                   1.0000: BHTEMP Input Source Selector
TUBEOD.IN                     2.0000: Tubing O.D.
TUBEID.IN                     1.7000: Tubing I.D.
CASEID.IN                     5.0120: Casing I.D.
SRFTEMP.DEGF                  0.0000: Surface Temperature
CASETHCK.IN                   0.0000: Casing Thickness
CASEOD.IN                     5.5000: Casing O.D.
MinAPIWall.IN                 0.0000: Perforation Flag
TDEPTH.FT                     0.0000: Total Depth
BOTTEMP.DEGF                100.0000: Bottom Hole Temperature
BOREID.IN                     7.8750: Borehole I.D.
~A  Depth       LSPD        LTEN       TCURR       TVOLT       ELTIM       ADPTH        TOD        HVOLTA       CCL         DET1        DET2       EJECT        AREA    
# ...
  6056.4244    -57.8700    556.3752    166.2523     76.0956   1773.7903   6056.4082  63275.7891     67.7830     -0.0055     12.0614     45.5170      0.0000 313200.8750
  6054.7578    -58.0000    556.3752    166.1300     76.1258   1775.4802   6054.7583  63277.4805     67.8193     -0.0038     12.0370     47.0129      0.0000 313525.2188
  6053.0912    -58.1200    543.7001    166.1300     76.0956   1777.1803   6053.1167  63279.1797     67.7891     -0.0063     11.8879     47.4818      0.0000 313857.5313
  6051.4246    -58.1200    554.7908    166.1606     76.1258   1778.9502   6051.4082  63280.9492     67.8178     -0.0061     12.3325     46.6589      0.0000 314139.4375
  6049.7580    -58.2500    537.3625    166.1911     76.1258   1780.6503   6049.7583  63282.6484     67.8163     -0.0076     13.2971     46.1077      0.0000 314464.0625
  6048.0914    -58.0000    543.7001    166.1911     76.1862   1782.3502   6048.1167  63284.3477     67.8767     -0.0041     12.6898     45.6119      0.0000 314784.1563
  6046.4248    -58.0000    534.1937    166.1606     76.0654   1784.1110   6046.4082  63286.1094     67.7574     -0.0079     12.2936     45.8582      0.0000 315058.8438
  6044.7582    -57.8700    551.6220    166.2829     76.0956   1785.8202   6044.7583  63287.8203     67.7814     -0.0055     12.2415     45.2021      0.0000 315377.3438
  6043.0916    -58.0000    548.4532    166.1911     76.1560   1787.5203   6043.1167  63289.5195     67.8465      0.2806     12.0829     46.2345      0.0000 315696.7188
  6041.4250    -58.3700    548.4532    166.1300     76.1258   1789.2202   6041.4585  63291.2188     67.8193      0.0009     12.0971     47.4333      0.0000 315978.5313
  6039.7584    -58.7500    546.8688    166.1300     76.1560   1790.9502   6039.7666  63292.9492     67.8495     -0.0087     12.4699     48.0796      0.0000 316314.0938
  6038.0918    -58.5000    540.5313    166.0382     76.0956   1792.6503   6038.1167  63294.6484     67.7937     -0.0084     12.6679     47.7164      0.0000 316648.7500
  6036.4252    -58.0000    537.3625    166.1300     76.1258   1794.3702   6036.4668  63296.3711     67.8193     -0.0085     12.3834     47.7947      0.0000 316935.7188
  6034.7586    -58.1200    535.7781    166.0994     76.1258   1796.1202   6034.7583  63298.1211     67.8208     -0.0072     12.0159     46.5822      0.0000 317265.7188
  6033.0920    -58.1200    535.7781    166.1300     76.1560   1797.8203   6033.1167  63299.8203     67.8495     -0.0053     12.5611     46.2961      0.0000 317589.8125
  6031.4254    -58.2500    535.7781    166.1300     76.1560   1799.5002   6031.4585  63301.5000     67.8495     -0.0029     12.1013     45.9056      0.0000 317866.8750
  6029.7588    -58.6200    535.7781    166.1300     76.1862   1801.2603   6029.7666  63303.2578     67.8798     -0.0041     11.7862     45.0474      0.0000 318183.9375
  6028.0922    -58.1200    535.7781    166.1911     76.1560   1802.9802   6028.1084  63304.9805     67.8465     -0.0040     12.1931     46.0597      0.0000 318502.5625
  6026.4256    -57.8700    535.7781    166.2523     76.0956   1804.6803   6026.4585  63306.6797     67.7830     -0.0009     12.5192     47.5040      0.0000 318783.9063
  6024.7590    -58.1200    534.1937    166.1911     76.0956   1806.4302   6024.7583  63308.4297     67.7860      0.0015     12.8045     47.7851      0.0000 319119.1563
  6023.0924    -58.1200    551.6220    166.1911     76.0956   1808.1302   6023.1167  63310.1289     67.7860     -0.0014     12.9122     47.0219      0.0000 319450.2500
  6021.4258    -58.2500    542.1157    166.1911     76.1560   1809.8203   6021.4668  63311.8203     67.8465     -0.0035     12.3073     46.6061      0.0000 319730.7813
  6019.7592    -58.5000    537.3625    166.1606     76.0956   1811.5802   6019.7583  63313.5781     67.7876     -0.0032     11.0872     46.8725      0.0000 320057.8750
  6018.0926    -58.1200    535.7781    166.2523     76.1862   1813.2913   6018.1167  63315.2891     67.8736     -0.0055     11.3714     46.5937      0.0000 320385.4375
  6016.4260    -58.2500    534.1937    166.1606     76.0956   1814.9802   6016.4585  63316.9805     67.7876     -0.0038     12.0177     45.6388      0.0000 320661.8750
  6014.7594    -58.5000    531.0249    166.1300     76.1258   1816.7102   6014.7749  63318.7109     67.8193     -0.0061     12.1524     45.0682      0.0000 320977.9063
  6013.0928    -58.6200    529.4406    166.3440     76.0654   1818.4003   6013.1084  63320.3984     67.7482     -0.0038     12.4805     46.3461      0.0000 321298.3125
  6011.4262    -58.8700    527.8561    166.2523     76.1258   1820.0710   6011.4585  63322.0703     67.8132     -0.0032     12.1776     45.8987      0.0000 321576.0313
  6009.7596    -59.1200    526.2718    166.2829     76.0956   1821.7803   6009.7749  63323.7773     67.7814      0.0018     11.8669     44.6064      0.0000 321890.8750
  6008.0930    -59.2500    527.8561    166.1911     76.1560   1823.4603   6008.1084  63325.4609     67.8465     -0.0047     11.7800     45.1013      0.0000 322205.4063
  6006.4264    -59.2500    524.6874    166.0994     76.1258   1825.1503   6006.4585  63327.1484     67.8208     -0.0089     11.2077     44.1814      0.0000 322473.2813
  6004.7598    -59.0000    515.1810    166.0994     76.1560   1826.9103   6004.7749  63328.9102     67.8511     -0.0023     11.4147     43.5819      0.0000 322779.1563
  6003.0932    -57.5000    537.3625    166.0994     76.1560   1828.7003   6003.1084  63330.6992     67.8511     -0.0056     12.1242     44.2908      0.0000 323086.6563
  6001.4266    -56.0000    542.1157    166.1606     76.0654   1830.4602   6001.4585  63332.4609     67.7574     -0.0055     11.8286     44.7457      0.0000 323354.4375
  5999.7600    -56.1200    518.3498    166.1300     76.1258   1832.2703   5999.7666  63334.2695     67.8193     -0.0058     11.5044     44.3841      0.0000 323666.2188
  5998.0934    -56.5000    521.5186    166.1300     76.1258   1834.0206   5998.1084  63336.0195     67.8193     -0.0015     11.4492     44.6615      0.0000 323977.7500
  5996.4268    -56.5000    521.5186    166.1911     76.1258   1835.7711   5996.4585  63337.7695     67.8163      0.0021     11.6903     44.5798      0.0000 324245.7500
  5994.7602    -56.7500    524.6874    166.1606     76.0654   1837.5702   5994.7583  63339.5703     67.7574      0.0029     12.3299     44.5567      0.0000 324557.1875
  5993.0936    -56.6200    521.5186    166.1911     76.1258   1839.3203   5993.1084  63341.3203     67.8163     -0.0043     12.4755     44.9914      0.0000 324871.0313
  5991.4270    -56.5000    516.7654    166.1911     76.1560   1841.0603   5991.4585  63343.0586     67.8465     -0.0128     12.1824     45.0783      0.0000 325141.2188
  5989.7604    -56.2500    513.5966    166.1911     76.1258   1842.8702   5989.7583  63344.8711     67.8163     -0.0029     12.5088     46.1928      0.0000 325460.5000
  5988.0938    -56.6200    513.5966    166.1911     76.1560   1844.6310   5988.1084  63346.6289     67.8465     -0.0076     12.1814     46.6012      0.0000 325786.7500
  5986.4272    -56.7500    518.3498    166.1606     76.1258   1846.3702   5986.4668  63348.3711     67.8178     -0.0031     11.8690     45.6810      0.0000 326063.4375
  5984.7606    -56.5000    518.3498    166.1911     76.1560   1848.1902   5984.7583  63350.1875     67.8465     -0.0003     12.0726     45.0521      0.0000 326379.3125
  5983.0940    -56.3700    524.6874    166.1606     76.1258   1849.9302   5983.1167  63351.9297     67.8178     -0.0049     12.3036     47.1113      0.0000 326702.6250
  5981.4274    -56.7500    518.3498    166.5887     75.9143   1851.6702   5981.4751  63353.6680     67.5849     -0.0027     12.3323     46.4439      0.0000 326984.6250
  5979.7608    -56.6200    515.1810    166.2523     76.0956   1853.4709   5979.7666  63355.4688     67.7830     -0.0018     12.8572     44.2393      0.0000 327300.3125
  5978.0942    -56.6200    515.1810    166.1911     76.0956   1855.2203   5978.1084  63357.2188     67.7860      0.0052     12.6663     43.7470      0.0000 327606.8438
