~Version Information
VERS.                            2.0: CWLS Log ASCII STANDARD - VERSION 2.0
WRAP.                             NO: One line per depth step
~Well Information
STRT.FT                    7736.3572: FIRST INDEX VALUE
STOP.FT                    5891.4310: LAST INDEX VALUE
STEP.FT                      -1.6666: STEP
NULL.                      -999.2500: NULL VALUE
COMP.                REPUBLIC INDUSTRIAL LLC: COMPANY
WELL.                       WDW #316: WELL
FLD.                 JESSE SINCLAIR PLANT: FIELD
LOC.                              --: LOCATION
CNTY.                        LIBERTY: COUNTY
DATE.                Mon Nov 28 19-05-02 2022: LOG DATE
STAT.                          TEXAS: STATE
~Curve Information
DEPT.FT                  0 000 00 00: Depth
LSPD.FT/MIN                        0: Line Speed
LTEN.LB                            0: Surface Line Tension
TCURR.MA                           0: Tool Current
TVOLT.V                            0: Tool Voltage
ELTIM.SEC                          0: Elapsed Time
ADPTH.FT                           0: Actual Depth
TOD.SEC                            0: Time of Day
HVOLTA.V                           0: Head Voltage Apparent
CCL.                               0: Casing Collar Locator
DET1.GAPI                          0: Tracer Detector 1
DET2.GAPI                          0: Tracer Detector 2
EJECT.                             0: Ejector Actuation
AREA.                              0: Area under Detector
~Parameter Information
BHTEMP_Src.                   1.0000: BHTEMP Input Source Selector
TUBEOD.IN                     2.0000: Tubing O.D.
TUBEID.IN                     1.7000: Tubing I.D.
CASEID.IN                     5.0120: Casing I.D.
SRFTEMP.DEGF                  0.0000: Surface Temperature
CASETHCK.IN                   0.0000: Casing Thickness
CASEOD.IN                     5.5000: Casing O.D.
MinAPIWall.IN                 0.0000: Perforation Flag
TDEPTH.FT                     0.0000: Total Depth
BOTTEMP.DEGF                100.0000: Bottom Hole Temperature
BOREID.IN                     7.8750: Borehole I.D.
~A  Depth       LSPD        LTEN       TCURR       TVOLT       ELTIM       ADPTH        TOD        HVOLTA       CCL         DET1        DET2       EJECT        AREA    
# ...
  5976.4276    -57.0000    516.7654    166.1300     76.1560   1856.9702   5976.4668  63358.9688     67.8495     -0.0047     12.2309     44.3026      0.0000 327871.2813
  5974.7610    -56.3700    518.3498    166.1606     76.2165   1858.7903   5974.7583  63360.7891     67.9084     -0.0027     12.2957     44.5154      0.0000 328182.4375
  5973.0944    -56.5000    516.7654    166.0688     76.1258   1860.5204   5973.1084  63362.5195     67.8224     -0.0017     12.4063     45.0316      0.0000 328495.7813
  5971.4278    -56.7500    515.1810    166.1300     76.1862   1862.2703   5971.4585  63364.2695     67.8798      0.0002     12.9261     45.1818      0.0000 328766.8438
  5969.7612    -56.7500    513.5966    166.1300     76.1862   1864.0602   5969.7583  63366.0586     67.8798     -0.0076     12.7192     46.0366      0.0000 329085.4375
  5968.0946    -56.7500    507.2591    166.1300     76.1560   1865.8103   5968.1084  63367.8086     67.8495     -0.0014     11.9758     46.6648      0.0000 329411.6250
  5966.4280    -56.6200    526.2718    166.1606     76.0654   1867.5702   5966.4585  63369.5703     67.7574     -0.0070     12.4028     46.0787      0.0000 329689.2813
  5964.7614    -56.5000    526.2718    166.1300     76.0956   1869.3602   5964.7666  63371.3594     67.7891     -0.0055     12.9082     47.0067      0.0000 330014.7813
  5963.0948    -56.8700    531.0249    166.1911     76.0956   1871.1102   5963.1167  63373.1094     67.7860     -0.0021     12.7423     46.7252      0.0000 330344.5938
  5961.4282    -56.6200    512.0123    166.1911     76.0956   1872.8503   5961.4668  63374.8477     67.7860     -0.0041     12.4353     44.6007      0.0000 330617.6250
  5959.7616    -56.6200    513.5966    166.1911     76.0956   1874.6503   5959.7583  63376.6484     67.7860     -0.0058     11.8761     43.6731      0.0000 330924.6250
  5958.0950    -56.7500    508.8435    166.1911     76.1258   1876.3903   5958.1250  63378.3906     67.8163     -0.0076     12.3448     44.4901      0.0000 331233.0625
  5956.4284    -56.5000    513.5966    166.1911     76.1258   1878.1603   5956.4585  63380.1602     67.8163     -0.0070     12.5626     45.5301      0.0000 331503.7188
  5954.7618    -56.6200    513.5966    166.1606     76.0352   1879.9503   5954.7583  63381.9492     67.7271     -0.0046     12.5982     46.3409      0.0000 331826.0313
  5953.0952    -57.0000    513.5966    166.2217     76.1862   1881.6903   5953.1167  63383.6875     67.8752      0.0043     12.8042     45.6289      0.0000 332148.7813
  5951.4286    -56.6200    512.0123    166.2217     76.1862   1883.4302   5951.4585  63385.4297     67.8752      0.0032     12.9900     44.3362      0.0000 332417.8125
  5949.7620    -56.5000    508.8435    166.0994     76.0654   1885.2402   5949.7583  63387.2383     67.7604     -0.0003     12.2758     44.1880      0.0000 332726.3750
  5948.0954    -56.6200    508.8435    166.3746     76.0654   1886.9902   5948.1084  63388.9883     67.7467     -0.0029     11.5971     45.1142      0.0000 333039.7813
  5946.4288    -56.5000    512.0123    166.2829     76.1258   1888.7302   5946.4585  63390.7305     67.8117      0.0026     11.8075     44.5799      0.0000 333309.1875
  5944.7622    -56.8700    510.4279    166.1300     76.0050   1890.5303   5944.7583  63392.5273     67.6985     -0.0273     11.9535     43.9431      0.0000 333617.9375
  5943.0956    -56.8700    512.0123    166.1300     76.1560   1892.2703   5943.1167  63394.2695     67.8495     -0.0011     12.4067     44.8307      0.0000 333928.4063
  5941.4290    -56.6200    508.8435    166.1300     76.1258   1894.0303   5941.4585  63396.0273     67.8193     -0.0035     11.9731     45.4444      0.0000 334200.1250
  5939.7624    -56.6200    505.6747    166.1606     76.1862   1895.8202   5939.7666  63397.8203     67.8782     -0.0029     11.7307     44.8482      0.0000 334516.2813
  5938.0958    -56.5000    507.2591    166.0382     76.1560   1897.5803   5938.1084  63399.5781     67.8541     -0.0018     11.8413     44.1548      0.0000 334827.0625
  5936.4292    -56.6200    526.2718    166.1300     76.0654   1899.3202   5936.4585  63401.3203     67.7589     -0.0043     11.6481     44.8821      0.0000 335093.6875
  5934.7626    -56.8700    516.7654    166.0994     76.0654   1901.1102   5934.7666  63403.1094     67.7604     -0.0055     11.7009     46.0231      0.0000 335413.8125
  5933.0960    -56.6200    513.5966    166.0994     76.1258   1902.8802   5933.1084  63404.8789     67.8208     -0.0006     11.9811     45.0313      0.0000 335732.0000
  5931.4294    -56.3700    512.0123    166.1606     76.1258   1904.6202   5931.4585  63406.6211     67.8178     -0.0032     12.0673     44.5764      0.0000 336000.7813
  5929.7628    -56.6200    513.5966    166.1606     76.1560   1906.4103   5929.7666  63408.4102     67.8480     -0.0008     11.9574     43.8224      0.0000 336309.0938
  5928.0962    -56.7500    513.5966    166.2217     76.0654   1908.1503   5928.1167  63410.1484     67.7543     -0.0082     11.8774     44.8511      0.0000 336619.5000
  5926.4296    -56.8700    526.2718    166.2523     76.0956   1909.9003   5926.4585  63411.8984     67.7830     -0.0012     12.2432     45.6510      0.0000 336891.3750
  5924.7630    -57.0000    510.4279    166.1911     76.1258   1911.7003   5924.7583  63413.6992     67.8163     -0.0056     12.2876     46.8369      0.0000 337215.9688
  5923.0964    -56.8700    504.0903    166.1911     76.1258   1913.4403   5923.1084  63415.4375     67.8163     -0.0008     11.8607     46.2281      0.0000 337542.6563
  5921.4298    -56.7500    507.2591    166.1606     76.0654   1915.1603   5921.4585  63417.1602     67.7574     -0.0107     11.4804     44.7673      0.0000 337814.9375
  5919.7632    -56.8700    505.6747    166.1911     76.0956   1916.9702   5919.7583  63418.9688     67.7860     -0.0081     11.3543     44.6014      0.0000 338125.7813
  5918.0966    -57.0000    504.0903    166.1606     76.1258   1918.6907   5918.1084  63420.6914     67.8178     -0.0040     11.7341     45.2767      0.0000 338442.4688
  5916.4300    -57.1200    516.7654    166.1606     76.1258   1920.4302   5916.4585  63422.4297     67.8178     -0.0067     12.0035     42.9562      0.0000 338706.5000
  5914.7634    -56.8700    505.6747    166.2217     76.0956   1922.2302   5914.7583  63424.2305     67.7845     -0.0081     11.7140     43.0031      0.0000 339004.3438
  5913.0968    -56.6200    515.1810    166.2217     76.0956   1923.9802   5913.1167  63425.9805     67.7845      0.0542     11.3211     45.5802      0.0000 339316.0000
  5911.4302    -56.5000    504.0903    166.2217     76.1258   1925.7202   5911.4668  63427.7188     67.8147      0.0029     11.5458     46.4869      0.0000 339593.5625
  5909.7636    -56.7500    510.4279    166.0994     76.1258   1927.5103   5909.7583  63429.5078     67.8208     -0.0043     12.7031     45.1411      0.0000 339914.6250
  5908.0970    -57.1200    512.0123    166.0994     76.1258   1929.2402   5908.1084  63431.2383     67.8208      0.0027     12.9961     43.7811      0.0000 340224.4688
  5906.4304    -57.2500    512.0123    166.0688     76.1862   1930.9802   5906.4668  63432.9805     67.8828     -0.0018     12.6120     43.6082      0.0000 340486.1250
  5904.7638    -57.0000    515.1810    166.1606     76.0352   1932.7803   5904.7583  63434.7773     67.7271     -0.0021     12.2903     44.2452      0.0000 340793.6250
  5903.0972    -56.8700    504.0903    166.1606     76.1258   1934.5203   5903.1084  63436.5195     67.8178     -0.0027     12.0517     45.8450      0.0000 341108.9063
  5901.4306    -56.7500    507.2591    166.1606     76.0956   1936.2704   5901.4585  63438.2695     67.7876     -0.0134     12.1040     46.6804      0.0000 341388.1250
  5899.7640    -56.7500    516.7654    166.1606     76.0956   1938.0602   5899.7583  63440.0586     67.7876     -0.0006     12.0405     45.7778      0.0000 341711.0938
  5898.0974    -56.7500    507.2591    166.0994     76.0956   1939.8102   5898.1084  63441.8086     67.7906     -0.0060     11.9651     45.2169      0.0000 342029.5000
