~Version Information
VERS.                            2.0: CWLS Log ASCII STANDARD - VERSION 2.0
WRAP.                             NO: One line per depth step
~Well Information
STRT.FT                    7736.3572: FIRST INDEX VALUE
STOP.FT                    5891.4310: LAST INDEX VALUE
STEP.FT                      -1.6666: STEP
NULL.                      -999.2500: NULL VALUE
COMP.                REPUBLIC INDUSTRIAL LLC: COMPANY
WELL.                       WDW #316: WELL
FLD.                 JESSE SINCLAIR PLANT: FIELD
LOC.                              --: LOCATION
CNTY.                        LIBERTY: COUNTY
DATE.                Mon Nov 28 19-05-02 2022: LOG DATE
STAT.                          TEXAS: STATE
~Curve Information
DEPT.FT                  0 000 00 00: Depth
LSPD.FT/MIN                        0: Line Speed
LTEN.LB                            0: Surface Line Tension
TCURR.MA                           0: Tool Current
TVOLT.V                            0: Tool Voltage
ELTIM.SEC                          0: Elapsed Time
ADPTH.FT                           0: Actual Depth
TOD.SEC                            0: Time of Day
HVOLTA.V                           0: Head Voltage Apparent
CCL.                               0: Casing Collar Locator
DET1.GAPI                          0: Tracer Detector 1
DET2.GAPI                          0: Tracer Detector 2
EJECT.                             0: Ejector Actuation
AREA.                              0: Area under Detector
~Parameter Information
BHTEMP_Src.                   1.0000: BHTEMP Input Source Selector
TUBEOD.IN                     2.0000: Tubing O.D.
TUBEID.IN                     1.7000: Tubing I.D.
CASEID.IN                     5.0120: Casing I.D.
SRFTEMP.DEGF                  0.0000: Surface Temperature
CASETHCK.IN                   0.0000: Casing Thickness
CASEOD.IN                     5.5000: Casing O.D.
MinAPIWall.IN                 0.0000: Perforation Flag
TDEPTH.FT                     0.0000: Total Depth
BOTTEMP.DEGF                100.0000: Bottom Hole Temperature
BOREID.IN                     7.8750: Borehole I.D.
~A  Depth       LSPD        LTEN       TCURR       TVOLT       ELTIM       ADPTH        TOD        HVOLTA       CCL         DET1        DET2       EJECT        AREA    
# ...
  6216.4180    -57.2500    608.6600    166.9251     75.9143   1607.4003   6216.4082  63109.3984     67.5680     -0.0066     12.6127     46.2957      0.0000 283709.3125
  6214.7514    -57.2500    608.6600    166.9251     75.8841   1609.1202   6214.7666  63111.1211     67.5378     -0.0024     13.2118     46.5733      0.0000 284033.7188
  6213.0848    -57.5000    611.8289    166.8945     75.8539   1610.8502   6213.1084  63112.8477     67.5091      0.0000     13.1850     45.8281      0.0000 284358.5938
  6211.4182    -57.3700    607.0757    166.8639     75.9143   1612.6202   6211.4082  63114.6211     67.5711      0.0006     12.5322     44.0499      0.0000 284626.8438
  6209.7516    -57.1200    600.7381    166.9251     75.9143   1614.3402   6209.7749  63116.3398     67.5680      0.0032     12.0228     43.5633      0.0000 284932.6250
  6208.0850    -57.5000    600.7381    166.9251     75.9143   1616.0702   6208.1084  63118.0703     67.5680     -0.0035     13.1451     43.8710      0.0000 285238.5000
  6206.4184    -57.5000    602.3225    166.9557     75.9143   1617.8402   6206.4165  63119.8398     67.5665     -0.0061     13.3918     43.6811      0.0000 285501.4688
  6204.7518    -57.2500    600.7381    166.9251     75.8841   1619.5602   6204.7749  63121.5586     67.5378      0.0124     12.9237     44.2195      0.0000 285808.0000
  6203.0852    -57.6200    610.2444    166.9557     75.9445   1621.2909   6203.1167  63123.2891     67.5967     -0.0067     13.0800     45.8377      0.0000 286124.5313
  6201.4186    -57.5000    600.7381    166.8639     75.9143   1623.0703   6201.4082  63125.0703     67.5711     -0.0023     13.2816     46.0180      0.0000 286400.7188
  6199.7520    -57.3700    600.7381    166.8945     75.8237   1624.8102   6199.7666  63126.8086     67.4789     -0.0073     13.3285     45.6642      0.0000 286721.2813
  6198.0854    -57.5000    602.3225    166.9251     75.8841   1626.5203   6198.1084  63128.5195     67.5378     -0.0075     12.7569     45.2849      0.0000 287039.8438
  6196.4188    -57.3700    600.7381    166.9557     75.7934   1628.2903   6196.4082  63130.2891     67.4456      0.0075     12.4889     44.5088      0.0000 287308.7500
  6194.7522    -57.7500    600.7381    166.9557     75.8841   1630.0002   6194.7583  63132.0000     67.5363     -0.0169     12.8642     44.9820      0.0000 287620.8125
  6193.0856    -57.7500    616.5820    166.9251     75.9445   1631.7202   6193.1084  63133.7188     67.5983      0.0070     13.6670     46.4638      0.0000 287942.5000
  6191.4190    -57.3700    602.3225    166.9862     75.8841   1633.4902   6191.4165  63135.4883     67.5348     -0.0056     13.5482     45.5939      0.0000 288219.0313
  6189.7524    -57.3700    607.0757    166.9251     75.8841   1635.2202   6189.7583  63137.2188     67.5378     -0.0157     13.1984     44.3809      0.0000 288532.5938
  6188.0858    -57.6200    605.4913    166.9862     75.9143   1636.9402   6188.1084  63138.9375     67.5650     -0.0043     13.2201     45.7982      0.0000 288846.9375
  6186.4192    -57.7500    605.4913    166.8945     75.9143   1638.6902   6186.4165  63140.6875     67.5696      0.0201     12.8846     47.9914      0.0000 289130.0313
  6184.7526    -58.0000    594.4005    166.9557     75.8841   1640.4202   6184.7583  63142.4180     67.5363      0.0209     12.1666     48.5245      0.0000 289468.8750
  6183.0860    -57.5000    594.4005    166.9862     75.8539   1642.1311   6183.1084  63144.1289     67.5046      0.0046     12.0226     48.3434      0.0000 289808.4375
  6181.4194    -57.5000    591.2318    166.8639     75.8539   1643.9003   6181.4165  63145.8984     67.5107      0.0053     12.3765     47.1702      0.0000 290094.5938
  6179.7528    -57.5000    597.5693    166.9251     75.8841   1645.6202   6179.7583  63147.6211     67.5378     -0.0098     12.9000     46.6422      0.0000 290421.6875
  6178.0862    -57.7500    595.9849    166.8945     75.9143   1647.3203   6178.1167  63149.3203     67.5696     -0.0089     13.6670     47.0654      0.0000 290749.9063
  6176.4196    -58.1200    611.8289    166.9557     75.8841   1649.0803   6176.4248  63151.0781     67.5363      0.0172     13.7762     47.1326      0.0000 291032.5625
  6174.7530    -57.7500    614.9976    166.9557     75.9445   1650.8202   6174.7583  63152.8203     67.5967      0.0049     13.1410     47.1023      0.0000 291362.8438
  6173.0864    -57.3700    594.4005    166.9557     75.8841   1652.5303   6173.1084  63154.5273     67.5363     -0.0092     13.1100     46.6245      0.0000 291690.1875
  6171.4198    -57.3700    592.8162    166.9251     75.9143   1654.2903   6171.4248  63156.2891     67.5680     -0.0148     13.2475     47.0488      0.0000 291971.0938
  6169.7532    -57.7500    595.9849    166.8945     75.9445   1656.0303   6169.7583  63158.0273     67.5998      0.0072     12.7300     47.9655      0.0000 292304.5625
  6168.0866    -57.3700    599.1537    166.8945     75.9143   1657.7402   6168.1084  63159.7383     67.5696     -0.0082     12.8805     46.8706      0.0000 292636.7188
  6166.4200    -57.6200    599.1537    166.8639     75.8841   1659.5103   6166.4082  63161.5078     67.5409      0.0084     12.7743     46.4098      0.0000 292915.8125
  6164.7534    -57.8700    599.1537    166.8639     75.8841   1661.2402   6164.7583  63163.2383     67.5409     -0.0128     12.0646     46.4783      0.0000 293240.8438
  6163.0868    -57.5000    597.5693    166.8028     75.9143   1662.9502   6163.1084  63164.9492     67.5742      0.0113     11.4193     46.1868      0.0000 293565.6250
  6161.4202    -57.7500    565.8815    166.7722     76.0352   1664.7102   6161.4082  63166.7109     67.6966     -0.0011     11.1862     45.5341      0.0000 293840.2500
  6159.7536    -58.0000    565.8815    166.8028     75.9747   1666.4202   6159.7583  63168.4180     67.6346      0.0203     11.7369     46.1129      0.0000 294160.3438
  6158.0870    -57.7500    567.4659    166.8333     75.8841   1668.1405   6158.1084  63170.1406     67.5424     -0.0023     12.3712     46.5408      0.0000 294485.8750
  6156.4204    -57.5000    589.6474    166.7722     75.9143   1669.9203   6156.4082  63171.9180     67.5757     -0.0067     12.7510     46.4849      0.0000 294764.5625
  6154.7538    -57.7500    584.8942    166.6804     75.9747   1671.6403   6154.7583  63173.6406     67.6407     -0.0078     12.5207     47.1244      0.0000 295092.1563
  6153.0872    -57.7500    578.5566    166.8333     75.9143   1673.3503   6153.1167  63175.3477     67.5726     -0.0032     12.0907     48.7845      0.0000 295428.4063
  6151.4206    -57.5000    575.3879    166.6804     75.9445   1675.1106   6151.4165  63177.1094     67.6105     -0.0053     12.2474     48.5594      0.0000 295721.7500
  6149.7540    -57.7500    573.8035    166.7416     76.0050   1676.8402   6149.7666  63178.8398     67.6679      0.0026     12.0852     46.5649      0.0000 296053.3438
  6148.0874    -57.5000    573.8035    167.7814     75.7028   1678.5608   6148.1167  63180.5586     67.3137     -0.0040     11.4092     45.7915      0.0000 296375.6563
  6146.4208    -57.6200    573.8035    167.2003     75.8539   1680.3402   6146.4082  63182.3398     67.4939     -0.0102     11.0211     45.0100      0.0000 296648.0938
  6144.7542    -57.6200    573.8035    166.9862     75.7632   1682.0503   6144.7583  63184.0508     67.4139     -0.6142     11.4054     43.2044      0.0000 296956.2500
  6143.0876    -57.8700    573.8035    166.8945     75.9445   1683.7510   6143.1167  63185.7500     67.5998      0.0412     12.1105     41.7554      0.0000 297252.0000
  6141.4210    -57.7500    573.8035    166.6193     76.0352   1685.5212   6141.4082  63187.5195     67.7042      0.0215     12.2276     42.4823      0.0000 297504.0313
  6139.7544    -57.5000    569.0503    166.3135     76.1258   1687.2502   6139.7583  63189.2500     67.8101      0.0031     12.0076     44.1848      0.0000 297809.0625
  6138.0878    -57.5000    572.2191    166.1300     76.0956   1688.9608   6138.1167  63190.9609     67.7891     -0.0024     11.6265     43.8124      0.0000 298117.7188
