~Version Information
VERS.                            2.0: CWLS Log ASCII STANDARD - VERSION 2.0
WRAP.                             NO: One line per depth step
~Well Information
STRT.FT                    7736.3572: FIRST INDEX VALUE
STOP.FT                    5891.4310: LAST INDEX VALUE
STEP.FT                      -1.6666: STEP
NULL.                      -999.2500: NULL VALUE
COMP.                REPUBLIC INDUSTRIAL LLC: COMPANY
WELL.                       WDW #316: WELL
FLD.                 JESSE SINCLAIR PLANT: FIELD
LOC.                              --: LOCATION
CNTY.                        LIBERTY: COUNTY
DATE.                Mon Nov 28 19-05-02 2022: LOG DATE
STAT.                          TEXAS: STATE
~Curve Information
DEPT.FT                  0 000 00 00: Depth
LSPD.FT/MIN                        0: Line Speed
LTEN.LB                            0: Surface Line Tension
TCURR.MA                           0: Tool Current
TVOLT.V                            0: Tool Voltage
ELTIM.SEC                          0: Elapsed Time
ADPTH.FT                           0: Actual Depth
TOD.SEC                            0: Time of Day
HVOLTA.V                           0: Head Voltage Apparent
CCL.                               0: Casing Collar Locator
DET1.GAPI                          0: Tracer Detector 1
DET2.GAPI                          0: Tracer Detector 2
EJECT.                             0: Ejector Actuation
AREA.                              0: Area under Detector
~Parameter Information
BHTEMP_Src.                   1.0000: BHTEMP Input Source Selector
TUBEOD.IN                     2.0000: Tubing O.D.
TUBEID.IN                     1.7000: Tubing I.D.
CASEID.IN                     5.0120: Casing I.D.
SRFTEMP.DEGF                  0.0000: Surface Temperature
CASETHCK.IN                   0.0000: Casing Thickness
CASEOD.IN                     5.5000: Casing O.D.
MinAPIWall.IN                 0.0000: Perforation Flag
TDEPTH.FT                     0.0000: Total Depth
BOTTEMP.DEGF                100.0000: Bottom Hole Temperature
BOREID.IN                     7.8750: Borehole I.D.
~A  Depth       LSPD        LTEN       TCURR       TVOLT       ELTIM       ADPTH        TOD        HVOLTA       CCL         DET1        DET2       EJECT        AREA    
# ...
  7256.3764    -56.5000    600.7381    166.6499     75.9445    518.7802   7256.4082  62020.7773     67.6120      0.0050     13.1310     46.9566      0.0000  91060.2422
  7254.7098    -56.8700    600.7381    166.6804     75.8841    520.5703   7254.7168  62022.5703     67.5501     -0.0002     12.6165     47.6368      0.0000  91391.7969
  7253.0432    -56.7500    602.3225    166.6193     75.8539    522.3302   7253.0581  62024.3281     67.5229     -0.0003     12.5156     47.5470      0.0000  91726.0234
  7251.3766    -56.5000    603.9069    166.6804     75.8841    524.0803   7251.4082  62026.0781     67.5501     -0.0098     13.6974     45.8761      0.0000  92005.8594
  7249.7100    -56.6200    605.4913    166.7110     75.9445    525.8702   7249.7168  62027.8711     67.6090      0.0186     14.2219     45.0252      0.0000  92321.8203
  7248.0434    -56.8700    600.7381    166.6499     75.9143    527.6202   7248.0581  62029.6211     67.5818     -0.0154     14.0136     45.8791      0.0000  92640.7500
  7246.3768    -56.8700    600.7381    166.6193     75.8841    529.3603   7246.4082  62031.3594     67.5531     -0.0179     14.1725     46.0787      0.0000  92916.7031
  7244.7102    -56.5000    603.9069    166.6499     75.9143    531.1702   7244.7085  62033.1680     67.5818      0.0003     13.8636     45.6905      0.0000  93238.4922
  7243.0436    -56.3700    607.0757    166.7110     75.9143    532.9203   7243.0581  62034.9180     67.5788      0.0264     13.2768     45.5323      0.0000  93556.7891
  7241.3770    -56.3700    610.2444    166.6499     75.8841    534.6703   7241.4165  62036.6680     67.5516      0.0040     13.4855     46.0947      0.0000  93831.8281
  7239.7104    -56.8700    610.2444    166.6193     75.9143    536.4803   7239.7085  62038.4805     67.5833      0.0031     13.2616     46.5149      0.0000  94156.9453
  7238.0438    -56.7500    610.2444    166.6499     75.8539    538.2202   7238.0581  62040.2188     67.5214      0.0017     13.6719     45.5804      0.0000  94478.8516
  7236.3772    -56.6200    608.6600    166.7110     75.9143    539.9702   7236.4165  62041.9688     67.5788     -0.0404     13.6917     46.6261      0.0000  94754.5078
  7234.7106    -56.5000    607.0757    166.6499     75.8841    541.7902   7234.7085  62043.7891     67.5516      0.0128     12.7412     49.4495      0.0000  95093.1875
  7233.0440    -56.2500    605.4913    166.6804     75.9143    543.5403   7233.0581  62045.5391     67.5803      0.0020     13.0557     49.2332      0.0000  95439.7188
  7231.3774    -56.3700    626.0883    166.7110     75.8539    545.2802   7231.4248  62047.2773     67.5183     -0.0259     13.2530     48.4326      0.0000  95732.3828
  7229.7108    -56.5000    618.1664    166.6499     75.8539    547.1002   7229.7085  62049.0977     67.5214     -0.0168     12.9355     47.6668      0.0000  96067.8047
  7228.0442    -56.5000    602.3225    166.6804     75.8539    548.8611   7228.0581  62050.8594     67.5198     -0.0012     12.4364     48.0981      0.0000  96402.7891
  7226.3776    -56.2500    591.2318    166.7722     75.8539    550.6102   7226.4248  62052.6094     67.5153     -0.0044     12.4662     48.5157      0.0000  96692.9297
  7224.7110    -56.3700    594.4005    166.8945     75.7632    552.4302   7224.7085  62054.4297     67.4185     -0.0014     12.9396     48.0609      0.0000  97031.9063
  7223.0444    -56.3700    597.5693    166.8028     75.8237    554.1702   7223.0581  62056.1680     67.4835     -0.0185     12.8323     46.4953      0.0000  97361.2656
  7221.3778    -56.3700    621.3352    166.7110     75.9143    555.9302   7221.4082  62057.9297     67.5788      0.0146     12.9353     47.8594      0.0000  97643.8125
  7219.7112    -56.6200    594.4005    166.6804     75.8841    557.7303   7219.7085  62059.7305     67.5501     -0.0485     12.6421     48.0727      0.0000  97982.6406
  7218.0446    -56.2500    608.6600    166.6804     75.9143    559.5012   7218.0581  62061.5000     67.5803      0.0012     12.7152     46.3406      0.0000  98311.0469
  7216.3780    -56.1200    597.5693    166.6499     75.9143    561.2707   7216.4082  62063.2695     67.5818     -0.0171     12.4196     45.6975      0.0000  98587.2891
  7214.7114    -56.1200    607.0757    166.6804     75.9143    563.0703   7214.7168  62065.0703     67.5803     -0.0171     12.0957     43.7604      0.0000  98899.4453
  7213.0448    -56.1200    603.9069    166.6804     75.8539    564.8303   7213.0669  62066.8281     67.5198     -0.0107     13.1247     44.0601      0.0000  99204.7813
  7211.3782    -56.5000    602.3225    166.6193     75.9143    566.6002   7211.4082  62068.5977     67.5833     -0.0391     13.6707     46.1467      0.0000  99476.4766
  7209.7116    -56.1200    600.7381    166.7416     75.8841    568.4202   7209.7085  62070.4180     67.5470     -0.0273     13.1300     47.4547      0.0000  99805.6406
  7208.0450    -56.0000    602.3225    166.6804     75.8539    570.1703   7208.0669  62072.1680     67.5198      0.0208     13.2393     47.0798      0.0000 100137.1250
  7206.3784    -56.5000    600.7381    166.6499     75.8841    571.9302   7206.4082  62073.9297     67.5516     -0.0177     14.2028     46.7957      0.0000 100418.2031
  7204.7118    -56.3700    600.7381    166.6193     75.8841    573.7408   7204.7085  62075.7383     67.5531      0.0180     15.7243     48.0447      0.0000 100749.0781
  7203.0452    -56.2500    600.7381    166.6804     75.9143    575.5110   7203.0669  62077.5117     67.5803     -0.0018     15.9652     52.5252      0.0000 101102.3125
  7201.3786    -56.1200    616.5820    166.5581     75.8539    577.2802   7201.4082  62079.2773     67.5260     -0.0229     14.6227     55.5593      0.0000 101429.3281
  7199.7120    -56.1200    591.2318    166.6499     75.8237    579.0803   7199.7085  62081.0781     67.4912     -0.0157     14.2066     54.9799      0.0000 101818.3672
  7198.0454    -56.1200    591.2318    166.6499     75.9143    580.8303   7198.0669  62082.8281     67.5818     -0.0191     14.2314     52.2227      0.0000 102192.6719
  7196.3788    -56.3700    597.5693    166.6499     75.9143    582.5902   7196.4082  62084.5898     67.5818      0.0336     13.9495     50.1268      0.0000 102497.7891
  7194.7122    -56.3700    592.8162    166.7110     75.9445    584.4102   7194.7168  62086.4102     67.6090     -0.0171     12.9051     49.2118      0.0000 102845.4609
  7193.0456    -56.3700    600.7381    166.6804     75.8841    586.1702   7193.0669  62088.1680     67.5501     -0.0308     12.2409     47.4253      0.0000 103182.3203
  7191.3790    -56.2500    600.7381    166.7110     75.9445    587.9203   7191.4082  62089.9180     67.6090     -0.0183     12.2702     47.2723      0.0000 103465.6406
  7189.7124    -56.5000    607.0757    166.6804     75.8841    589.7202   7189.7168  62091.7188     67.5501     -0.0333     12.7024     48.5105      0.0000 103801.2188
  7188.0458    -56.5000    603.9069    166.6804     75.8539    591.5110   7188.0581  62093.5117     67.5198      0.0378     12.2309     48.2579      0.0000 104141.1719
  7186.3792    -55.8700    627.6727    166.7416     75.8539    593.2802   7186.4082  62095.2773     67.5168     -0.0175     12.0088     47.4407      0.0000 104427.5703
  7184.7126    -55.7500    635.5947    166.5887     75.8841    595.0902   7184.7168  62097.0898     67.5546     -0.0235     12.9188     46.4248      0.0000 104756.2656
  7183.0460    -56.1200    637.1791    166.8945     75.8841    596.8602   7183.0581  62098.8594     67.5394     -0.0056     13.8208     45.1329      0.0000 105075.3750
  7181.3794    -56.1200    657.7761    166.7722     75.8841    598.6102   7181.4082  62100.6094     67.5455      0.0160     13.7305     44.8612      0.0000 105345.1172
  7179.7128    -55.8700    640.3478    166.7416     75.8237    600.4302   7179.7168  62102.4297     67.4866     -0.0369     12.7364     45.0868      0.0000 105659.3359
  7178.0462    -56.0000    653.0230    166.6499     75.9143    602.2102   7178.0581  62104.2109     67.5818      0.0113     12.5619     45.7963      0.0000 105978.3359
