~Version Information
VERS.                            2.0: CWLS Log ASCII STANDARD - VERSION 2.0
WRAP.                             NO: One line per depth step
~Well Information
STRT.FT                    7736.3572: FIRST INDEX VALUE
STOP.FT                    5891.4310: LAST INDEX VALUE
STEP.FT                      -1.6666: STEP
NULL.                      -999.2500: NULL VALUE
COMP.                REPUBLIC INDUSTRIAL LLC: COMPANY
WELL.                       WDW #316: WELL
FLD.                 JESSE SINCLAIR PLANT: FIELD
LOC.                              --: LOCATION
CNTY.                        LIBERTY: COUNTY
DATE.                Mon Nov 28 19-05-02 2022: LOG DATE
STAT.                          TEXAS: STATE
~Curve Information
DEPT.FT                  0 000 00 00: Depth
LSPD.FT/MIN                        0: Line Speed
LTEN.LB                            0: Surface Line Tension
TCURR.MA                           0: Tool Current
TVOLT.V                            0: Tool Voltage
ELTIM.SEC                          0: Elapsed Time
ADPTH.FT                           0: Actual Depth
TOD.SEC                            0: Time of Day
HVOLTA.V                           0: Head Voltage Apparent
CCL.                               0: Casing Collar Locator
DET1.GAPI                          0: Tracer Detector 1
DET2.GAPI                          0: Tracer Detector 2
EJECT.                             0: Ejector Actuation
AREA.                              0: Area under Detector
~Parameter Information
BHTEMP_Src.                   1.0000: BHTEMP Input Source Selector
TUBEOD.IN                     2.0000: Tubing O.D.
TUBEID.IN                     1.7000: Tubing I.D.
CASEID.IN                     5.0120: Casing I.D.
SRFTEMP.DEGF                  0.0000: Surface Temperature
CASETHCK.IN                   0.0000: Casing Thickness
CASEOD.IN                     5.5000: Casing O.D.
MinAPIWall.IN                 0.0000: Perforation Flag
TDEPTH.FT                     0.0000: Total Depth
BOTTEMP.DEGF                100.0000: Bottom Hole Temperature
BOREID.IN                     7.8750: Borehole I.D.
~A  Depth       LSPD        LTEN       TCURR       TVOLT       ELTIM       ADPTH        TOD        HVOLTA       CCL         DET1        DET2       EJECT        AREA    
# ...
  7016.3860    -56.8700    689.4639    166.7722     75.8539    773.5502   7016.4165  62275.5508     67.5153     -0.0040     12.1692     44.4085      0.0000 136010.9531
  7014.7194    -56.7500    689.4639    166.7722     75.9143    775.3503   7014.7168  62277.3477     67.5757     -0.0098     12.4488     43.4582      0.0000 136317.7344
  7013.0528    -56.7500    687.8796    166.7722     75.8539    777.1002   7013.0669  62279.0977     67.5153     -0.0018     13.5127     44.4236      0.0000 136623.5781
  7011.3862    -56.7500    702.1391    166.7722     75.8237    778.8502   7011.4165  62280.8477     67.4850      0.0064     13.9460     46.8112      0.0000 136899.1094
  7009.7196    -56.7500    713.2298    166.7722     75.9143    780.6503   7009.7085  62282.6484     67.5757     -0.0166     13.6702     47.3696      0.0000 137229.4688
  7008.0530    -56.7500    710.0610    166.7722     75.8841    782.3802   7008.0669  62284.3789     67.5455     -0.0014     14.2023     48.7985      0.0000 137566.3125
  7006.3864    -56.8700    694.2171    166.8028     75.8841    784.1403   7006.4082  62286.1406     67.5439     -0.0092     13.9886     49.6707      0.0000 137862.6094
  7004.7198    -56.7500    673.6201    166.7722     75.8539    785.9202   7004.7168  62287.9180     67.5153     -0.0238     13.0049     48.9700      0.0000 138208.8594
  7003.0532    -56.7500    678.3732    166.8028     75.8539    787.6503   7003.0669  62289.6484     67.5137     -0.0177     12.8375     46.7264      0.0000 138542.9063
  7001.3866    -57.0000    678.3732    166.7416     75.8841    789.4103   7001.4082  62291.4102     67.5470      0.0087     13.1182     45.3466      0.0000 138817.8281
  6999.7200    -57.2500    681.5420    166.7722     75.8237    791.1802   6999.7085  62293.1797     67.4850     -0.0098     13.7632     45.0001      0.0000 139133.3906
  6998.0534    -56.7500    679.9576    166.7722     75.9143    792.9303   6998.0669  62294.9297     67.5757      0.0081     14.2471     44.7612      0.0000 139447.8281
  6996.3868    -56.8700    673.6201    166.7722     75.8841    794.6802   6996.4082  62296.6797     67.5455      0.0061     13.6209     44.8671      0.0000 139715.9844
  6994.7202    -56.6200    670.4513    166.7416     75.9747    796.4902   6994.7085  62298.4883     67.6376     -0.0096     12.9919     47.0908      0.0000 140038.1406
  6993.0536    -56.6200    673.6201    166.7722     75.9143    798.2104   6993.0752  62300.2109     67.5757     -0.0043     12.5544     48.8979      0.0000 140376.2031
  6991.3870    -57.0000    679.9576    166.7722     75.8841    799.9502   6991.4165  62301.9492     67.5455      0.0089     12.7058     48.4777      0.0000 140668.9375
  6989.7204    -57.2500    679.9576    166.7722     75.9143    801.7503   6989.7085  62303.7500     67.5757     -0.0072     13.5644     47.3046      0.0000 141003.0313
  6988.0538    -56.6200    698.9703    166.7722     75.9143    803.5103   6988.0581  62305.5078     67.5757     -0.0024     13.0697     47.5402      0.0000 141334.6563
  6986.3872    -56.3700    673.6201    166.7722     75.9143    805.2603   6986.4082  62307.2578     67.5757      0.0098     12.6964     47.4540      0.0000 141619.9531
  6984.7206    -56.5000    675.2045    166.7722     75.8841    807.0303   6984.7251  62309.0273     67.5455     -0.0258     12.7120     46.9152      0.0000 141949.8438
  6983.0540    -56.7500    673.6201    166.8028     75.9747    808.7902   6983.0581  62310.7891     67.6346     -0.0096     12.0805     47.7215      0.0000 142280.5000
  6981.3874    -56.8700    681.5420    166.7722     75.9143    810.5203   6981.4082  62312.5195     67.5757     -0.0110     11.5696     47.9213      0.0000 142568.6094
  6979.7208    -56.8700    692.6328    166.7722     75.8841    812.3303   6979.7168  62314.3281     67.5455      0.0003     11.6264     46.5984      0.0000 142898.4844
  6978.0542    -56.7500    684.7108    166.9557     75.8237    814.0703   6978.0669  62316.0703     67.4759      0.0006     12.2832     46.1044      0.0000 143222.4688
  6976.3876    -56.6200    683.1264    166.8333     75.9143    815.8002   6976.4082  62317.8008     67.5726      0.0093     13.1488     46.0735      0.0000 143498.8281
  6974.7210    -57.0000    676.7888    166.7722     75.9143    817.5902   6974.7251  62319.5898     67.5757     -0.0105     13.1612     45.7950      0.0000 143820.5156
  6973.0544    -57.0000    665.6981    166.8028     75.8841    819.3303   6973.0581  62321.3281     67.5439     -0.0029     12.0081     45.9154      0.0000 144140.8438
  6971.3878    -57.0000    692.6328    166.8028     75.8841    821.0811   6971.4082  62323.0781     67.5439     -0.0101     11.6716     46.7202      0.0000 144419.4063
  6969.7212    -56.8700    691.0483    166.8028     75.9143    822.8702   6969.7168  62324.8711     67.5742     -0.0092     11.8948     45.1754      0.0000 144741.7344
  6968.0546    -56.8700    686.2952    166.7722     75.9143    824.6102   6968.0581  62326.6094     67.5757      0.0008     11.9079     44.7072      0.0000 145054.1250
  6966.3880    -56.8700    668.8669    166.8028     75.8539    826.3503   6966.4082  62328.3477     67.5137     -0.0040     12.5560     45.9148      0.0000 145326.4688
  6964.7214    -56.8700    673.6201    166.7416     75.9445    828.1302   6964.7251  62330.1289     67.6074     -0.0027     13.6787     46.6192      0.0000 145651.5469
  6963.0548    -56.8700    675.2045    166.8028     75.9143    829.8903   6963.0581  62331.8906     67.5742      0.0031     12.7348     46.7500      0.0000 145978.0313
  6961.3882    -56.7500    675.2045    166.7722     75.8841    831.6403   6961.4165  62333.6406     67.5455     -0.0064     11.7939     46.9415      0.0000 146259.5938
  6959.7216    -56.5000    673.6201    166.7416     75.8841    833.4503   6959.7085  62335.4492     67.5470     -0.0046     12.3126     45.7748      0.0000 146584.3906
  6958.0550    -56.8700    676.7888    166.8333     75.8841    835.1802   6958.0581  62337.1797     67.5424     -0.0145     12.7789     44.1339      0.0000 146897.5625
  6956.3884    -57.0000    676.7888    166.7416     75.9143    836.9102   6956.4165  62338.9102     67.5772     -0.0092     12.7390     44.0659      0.0000 147161.6563
  6954.7218    -56.8700    678.3732    166.7722     75.9143    838.7202   6954.7085  62340.7188     67.5757     -0.0108     13.0787     45.2742      0.0000 147474.0313
  6953.0552    -56.7500    672.0356    166.7722     75.9445    840.4503   6953.0581  62342.4492     67.6059     -0.0069     13.1639     46.7183      0.0000 147797.6406
  6951.3886    -56.7500    678.3732    166.8333     75.9445    842.1902   6951.4082  62344.1875     67.6029     -0.0069     13.8317     46.5942      0.0000 148077.7344
  6949.7220    -57.0000    676.7888    166.8028     75.8539    843.9902   6949.7085  62345.9883     67.5137     -0.0056     14.0341     46.6512      0.0000 148404.3594
  6948.0554    -56.8700    675.2045    166.8028     75.8237    845.7302   6948.0581  62347.7305     67.4835     -0.0227     12.7965     45.5230      0.0000 148726.3438
  6946.3888    -56.8700    676.7888    166.8028     75.8841    847.4708   6946.4165  62349.4688     67.5439     -0.0114     12.0505     46.6372      0.0000 149002.1250
  6944.7222    -56.8700    679.9576    166.8333     75.8841    849.2703   6944.7085  62351.2695     67.5424     -0.0034     11.9885     48.3901      0.0000 149336.9688
  6943.0556    -57.0000    686.2952    166.8639     75.8841    851.0009   6943.0581  62353.0000     67.5409      0.0020     12.7568     47.7159      0.0000 149673.6250
  6941.3890    -57.0000    676.7888    166.8333     75.8539    852.7202   6941.4248  62354.7188     67.5122     -0.0044     14.3377     47.2946      0.0000 149958.2656
  6939.7224    -57.0000    678.3732    166.8945     75.8841    854.5103   6939.7168  62356.5078     67.5394      0.0009     14.3501     46.1261      0.0000 150285.3906
  6938.0558    -57.2500    673.6201    166.8028     75.8841    856.2502   6938.0581  62358.2500     67.5439     -0.0003     13.6007     45.5788      0.0000 150604.5156
