~Version Information
VERS.                            2.0: CWLS Log ASCII STANDARD - VERSION 2.0
WRAP.                             NO: One line per depth step
~Well Information
STRT.FT                    7736.3572: FIRST INDEX VALUE
STOP.FT                    5891.4310: LAST INDEX VALUE
STEP.FT                      -1.6666: STEP
NULL.                      -999.2500: NULL VALUE
COMP.                REPUBLIC INDUSTRIAL LLC: COMPANY
WELL.                       WDW #316: WELL
FLD.                 JESSE SINCLAIR PLANT: FIELD
LOC.                              --: LOCATION
CNTY.                        LIBERTY: COUNTY
DATE.                Mon Nov 28 19-05-02 2022: LOG DATE
STAT.                          TEXAS: STATE
~Curve Information
DEPT.FT                  0 000 00 00: Depth
LSPD.FT/MIN                        0: Line Speed
LTEN.LB                            0: Surface Line Tension
TCURR.MA                           0: Tool Current
TVOLT.V                            0: Tool Voltage
ELTIM.SEC                          0: Elapsed Time
ADPTH.FT                           0: Actual Depth
TOD.SEC                            0: Time of Day
HVOLTA.V                           0: Head Voltage Apparent
CCL.                               0: Casing Collar Locator
DET1.GAPI                          0: Tracer Detector 1
DET2.GAPI                          0: Tracer Detector 2
EJECT.                             0: Ejector Actuation
AREA.                              0: Area under Detector
~Parameter Information
BHTEMP_Src.                   1.0000: BHTEMP Input Source Selector
TUBEOD.IN                     2.0000: Tubing O.D.
TUBEID.IN                     1.7000: Tubing I.D.
CASEID.IN                     5.0120: Casing I.D.
SRFTEMP.DEGF                  0.0000: Surface Temperature
CASETHCK.IN                   0.0000: Casing Thickness
CASEOD.IN                     5.5000: Casing O.D.
MinAPIWall.IN                 0.0000: Perforation Flag
TDEPTH.FT                     0.0000: Total Depth
BOTTEMP.DEGF                100.0000: Bottom Hole Temperature
BOREID.IN                     7.8750: Borehole I.D.
~A  Depth       LSPD        LTEN       TCURR       TVOLT       ELTIM       ADPTH        TOD        HVOLTA       CCL         DET1        DET2       EJECT        AREA    
# ...
  6696.3988    -57.5000    562.7127    166.8333     75.9143   1108.9602   6696.4248  62610.9609     67.5726      0.0153     13.2160     46.6929      0.0000 195473.4375
  6694.7322    -57.7500    561.1284    166.8639     75.8841   1110.6802   6694.7583  62612.6797     67.5409      0.0185     12.5926     45.5203      0.0000 195795.4531
  6693.0656    -57.6200    561.1284    166.8945     75.8237   1112.4403   6693.0669  62614.4375     67.4789      0.0047     12.9227     45.4207      0.0000 196113.3750
  6691.3990    -57.6200    557.9596    166.9251     75.8539   1114.1603   6691.4248  62616.1602     67.5076      0.0114     12.6679     45.1162      0.0000 196384.9531
  6689.7324    -57.3700    556.3752    167.1086     75.8539   1115.9003   6689.7583  62617.8984     67.4984     -0.0357     12.0382     45.1491      0.0000 196700.6563
  6688.0658    -57.2500    553.2064    166.8639     75.9143   1117.6909   6688.0581  62619.6914     67.5711      0.0037     11.4879     44.3881      0.0000 197014.3906
  6686.3992    -57.1200    565.8815    166.8639     75.9143   1119.4203   6686.4165  62621.4180     67.5711      0.0014     11.7621     43.7928      0.0000 197278.2031
  6684.7326    -57.1200    559.5439    166.8333     75.8841   1121.1403   6684.7583  62623.1406     67.5424     -0.0159     12.9048     44.2402      0.0000 197585.8125
  6683.0660    -57.6200    559.5439    166.8028     75.8841   1122.9103   6683.0581  62624.9102     67.5439     -0.0188     13.5585     45.9420      0.0000 197901.5469
  6681.3994    -58.0000    557.9596    166.8639     75.8841   1124.6104   6681.4165  62626.6094     67.5409     -0.0003     13.1113     47.9943      0.0000 198184.7344
  6679.7328    -57.8700    556.3752    166.8028     75.8841   1126.3502   6679.7583  62628.3477     67.5439     -0.0163     12.8094     47.1409      0.0000 198519.7656
  6678.0662    -57.0000    556.3752    166.8639     75.9143   1128.1503   6678.0581  62630.1484     67.5711     -0.0014     12.4346     44.9711      0.0000 198840.2031
  6676.3996    -57.0000    565.8815    166.8333     75.8841   1129.8602   6676.4165  62631.8594     67.5424      0.0058     12.8289     44.6921      0.0000 199108.3906
  6674.7330    -57.3700    572.2191    166.8945     75.9143   1131.5802   6674.7583  62633.5781     67.5696     -0.0089     13.0800     45.6874      0.0000 199424.5313
  6673.0664    -57.7500    565.8815    166.8333     75.9143   1133.3402   6673.0581  62635.3398     67.5726      0.0055     12.6649     46.6485      0.0000 199749.2344
  6671.3998    -57.7500    561.1284    166.8333     75.9445   1135.0602   6671.4165  62637.0586     67.6029     -0.0127     12.8916     46.2694      0.0000 200027.6719
  6669.7332    -57.7500    557.9596    166.8639     75.9445   1136.7803   6669.7583  62638.7773     67.6013     -0.0090     12.9372     47.2959      0.0000 200355.1563
  6668.0666    -57.6200    557.9596    166.8333     75.8841   1138.5702   6668.0669  62640.5703     67.5424      0.0046     12.9665     46.2078      0.0000 200683.9063
  6666.4000    -57.1200    557.9596    166.8945     75.8841   1140.3103   6666.4082  62642.3086     67.5394     -0.0131     12.9708     44.7530      0.0000 200955.1719
  6664.7334    -57.2500    556.3752    166.8333     75.9143   1142.0203   6664.7583  62644.0195     67.5726     -0.0226     13.1628     45.3013      0.0000 201269.7813
  6663.0668    -57.5000    556.3752    166.8639     75.8841   1143.7803   6663.0752  62645.7773     67.5409     -0.0179     12.9201     46.6246      0.0000 201591.8906
  6661.4002    -57.6200    554.7908    166.8945     75.8841   1145.5103   6661.4165  62647.5078     67.5394      0.0320     13.1910     47.9498      0.0000 201876.4844
  6659.7336    -57.2500    559.5439    166.8639     75.9445   1147.2402   6659.7666  62649.2383     67.6013     -0.0136     13.5889     47.7444      0.0000 202212.7813
  6658.0670    -57.1200    556.3752    166.8945     75.8841   1149.0303   6658.0669  62651.0273     67.5394     -0.0105     13.2049     46.5797      0.0000 202541.5469
  6656.4004    -57.1200    557.9596    166.8945     75.9143   1150.7703   6656.4082  62652.7695     67.5696     -0.0229     13.2833     47.7336      0.0000 202824.0625
  6654.7338    -57.2500    557.9596    166.8333     75.8841   1152.4703   6654.7583  62654.4688     67.5424     -0.0133     13.3959     48.5430      0.0000 203163.6563
  6653.0672    -57.7500    557.9596    166.8333     75.9143   1154.2302   6653.0752  62656.2305     67.5726     -0.0105     13.1685     46.3686      0.0000 203494.9063
  6651.4006    -57.6200    556.3752    167.0168     75.8539   1155.9702   6651.4082  62657.9688     67.5030     -0.0157     12.9488     45.7881      0.0000 203770.2344
  6649.7340    -57.3700    557.9596    166.8028     75.8539   1157.7012   6649.7583  62659.6992     67.5137     -0.0374     12.7719     46.0922      0.0000 204092.2500
  6648.0674    -57.6200    556.3752    166.8333     75.8841   1159.4403   6648.0669  62661.4375     67.5424     -0.0012     13.2246     46.0559      0.0000 204414.3438
  6646.4008    -58.0000    556.3752    166.8333     75.9143   1161.1702   6646.4082  62663.1680     67.5726     -0.0085     13.3111     46.1796      0.0000 204691.5625
  6644.7342    -57.6200    553.2064    166.8333     75.8841   1162.9003   6644.7583  62664.8984     67.5424      0.0346     12.7600     45.5445      0.0000 205011.9219
  6643.0676    -57.2500    553.2064    166.9251     75.9143   1164.6902   6643.0581  62666.6875     67.5680     -0.0096     13.5123     45.8832      0.0000 205331.9531
  6641.4010    -57.2500    556.3752    166.8028     75.8841   1166.4103   6641.4165  62668.4102     67.5439     -0.0104     13.8760     46.3238      0.0000 205608.5156
  6639.7344    -57.2500    559.5439    166.8028     75.9143   1168.1302   6639.7666  62670.1289     67.5742      0.0060     12.8674     47.1913      0.0000 205936.6094
  6638.0678    -57.5000    562.7127    166.8028     75.9445   1169.9203   6638.0581  62671.9180     67.6044      0.0027     12.1313     47.0787      0.0000 206266.7969
  6636.4012    -57.5000    561.1284    166.8028     75.9143   1171.6603   6636.4082  62673.6602     67.5742      0.0005     11.9190     47.1736      0.0000 206549.4219
  6634.7346    -56.8700    561.1284    166.7722     75.9143   1173.3802   6634.7749  62675.3789     67.5757     -0.0034     12.2357     47.1142      0.0000 206879.7344
  6633.0680    -57.0000    556.3752    166.8639     75.9143   1175.1803   6633.0581  62677.1797     67.5711     -0.0031     12.6969     46.1666      0.0000 207206.4844
  6631.4014    -57.2500    556.3752    166.8639     75.9143   1176.9003   6631.4082  62678.8984     67.5711     -0.0049     12.9103     45.3218      0.0000 207479.8750
  6629.7348    -57.3700    557.9596    166.7722     75.9445   1178.6102   6629.7666  62680.6094     67.6059     -0.0081     13.2231     46.1062      0.0000 207799.6719
  6628.0682    -58.0000    559.5439    166.8028     75.8841   1180.3702   6628.0581  62682.3711     67.5439      0.0066     12.8748     46.4311      0.0000 208124.3906
  6626.4016    -57.6200    557.9596    166.8639     75.9445   1182.1002   6626.4082  62684.0977     67.6013      0.0005     12.7633     46.4220      0.0000 208402.9375
  6624.7350    -57.3700    556.3752    166.8333     75.9143   1183.8108   6624.7666  62685.8086     67.5726     -0.0171     12.0765     46.0105      0.0000 208726.2969
  6623.0684    -57.6200    556.3752    166.8333     75.8841   1185.5802   6623.0581  62687.5781     67.5424      0.0075     12.2816     46.5481      0.0000 209050.0469
  6621.4018    -57.7500    534.1937    166.7722     75.9143   1187.3003   6621.4165  62689.3008     67.5757     -0.0085     12.4290     46.0363      0.0000 209328.5781
  6619.7352    -57.2500    564.2971    166.7722     75.8841   1189.0303   6619.7666  62691.0313     67.5455     -0.0063     11.6842     44.3272      0.0000 209643.4063
  6618.0686    -57.1200    569.0503    166.8028     75.9143   1190.8302   6618.0581  62692.8281     67.5742      0.0027     12.2597     44.0756      0.0000 209952.1406
