~Version Information
VERS.                            2.0: CWLS Log ASCII STANDARD - VERSION 2.0
WRAP.                             NO: One line per depth step
~Well Information
STRT.FT                    7736.3572: FIRST INDEX VALUE
STOP.FT                    5891.4310: LAST INDEX VALUE
STEP.FT                      -1.6666: STEP
NULL.                      -999.2500: NULL VALUE
COMP.                REPUBLIC INDUSTRIAL LLC: COMPANY
WELL.                       WDW #316: WELL
FLD.                 JESSE SINCLAIR PLANT: FIELD
LOC.                              --: LOCATION
CNTY.                        LIBERTY: COUNTY
DATE.                Mon Nov 28 19-05-02 2022: LOG DATE
STAT.                          TEXAS: STATE
~Curve Information
DEPT.FT                  0 000 00 00: Depth
LSPD.FT/MIN                        0: Line Speed
LTEN.LB                            0: Surface Line Tension
TCURR.MA                           0: Tool Current
TVOLT.V                            0: Tool Voltage
ELTIM.SEC                          0: Elapsed Time
ADPTH.FT                           0: Actual Depth
TOD.SEC                            0: Time of Day
HVOLTA.V                           0: Head Voltage Apparent
CCL.                               0: Casing Collar Locator
DET1.GAPI                          0: Tracer Detector 1
DET2.GAPI                          0: Tracer Detector 2
EJECT.                             0: Ejector Actuation
AREA.                              0: Area under Detector
~Parameter Information
BHTEMP_Src.                   1.0000: BHTEMP Input Source Selector
TUBEOD.IN                     2.0000: Tubing O.D.
TUBEID.IN                     1.7000: Tubing I.D.
CASEID.IN                     5.0120: Casing I.D.
SRFTEMP.DEGF                  0.0000: Surface Temperature
CASETHCK.IN                   0.0000: Casing Thickness
CASEOD.IN                     5.5000: Casing O.D.
MinAPIWall.IN                 0.0000: Perforation Flag
TDEPTH.FT                     0.0000: Total Depth
BOTTEMP.DEGF                100.0000: Bottom Hole Temperature
BOREID.IN                     7.8750: Borehole I.D.
~A  Depth       LSPD        LTEN       TCURR       TVOLT       ELTIM       ADPTH        TOD        HVOLTA       CCL         DET1        DET2       EJECT        AREA    
  7736.3572   -999.2500   -999.2500   -999.2500   -999.2500   -999.2500   -999.2500   -999.2500   -999.2500   -999.2500   -999.2500     41.1751   -999.2500    643.6252
  7734.6906      0.0000    673.6201    166.4664     75.9445      5.0802   7734.7085  61507.0781     67.6212   -999.2500   -999.2500     44.3100      0.0000    901.0541
  7733.0240    -22.7500    679.9576    166.4358     76.0050      7.5202   7733.0083  61509.5195     67.6832   -999.2500   -999.2500     46.6138      0.0000   1222.2599
  7731.3574    -43.1200    702.1391    166.4358     75.9445      9.4803   7731.3584  61511.4805     67.6227   -999.2500     10.0003     47.7764      0.0000   1552.9194
  7729.6908    -50.7500    708.4766    166.4664     75.9747     11.3202   7729.7168  61513.3203     67.6514     -0.0043     10.0179     47.7674      0.0000   1840.7650
  7728.0242    -53.6200    843.1498    166.3440     76.0050     13.2003   7728.0083  61515.1992     67.6878     -0.0046     10.3132     45.6547      0.0000   2166.8008
  7726.3576    -54.3700    730.6581    166.4052     75.9143     15.0103   7726.3667  61517.0078     67.5940     -0.0032     11.0920     44.2902      0.0000   2480.5403
  7724.6910    -54.5000    801.9557    166.4358     75.9747     16.8402   7724.7085  61518.8398     67.6529     -0.0044     11.5540     43.5404      0.0000   2743.2930
  7723.0244    -54.3700    786.1118    166.4358     76.0050     18.7202   7723.0083  61520.7188     67.6832     -0.0212     12.1543     44.3606      0.0000   3050.2856
  7721.3578    -54.2500    756.0084    166.4664     75.9445     20.5502   7721.3667  61522.5508     67.6212     -0.0009     11.9405     45.7606      0.0000   3366.6299
  7719.6912    -54.2500    806.7089    166.3746     75.9747     22.3702   7719.7085  61524.3711     67.6560      0.0002     11.5656     45.7881      0.0000   3642.3806
  7718.0246    -49.8700    789.2805    166.4052     75.9143     24.5602   7718.0083  61526.5586     67.5940     -0.0139     12.0652     43.8952      0.0000   3955.0261
  7716.3580    -50.1200    724.3206    166.4969     75.9747     26.3902   7716.3584  61528.3906     67.6499      0.0000     12.5064     45.2113      0.0000   4265.5396
  7714.6914    -54.1200    776.6054    166.5581     75.8237     28.2302   7714.7085  61530.2305     67.4958      0.0006     12.8685     46.0351      0.0000   4541.0425
  7713.0248    -53.7500    760.7615    166.4052     76.0050     30.1202   7713.0166  61532.1211     67.6847     -0.0835     13.1861     45.0327      0.0000   4859.1450
  7711.3582    -53.7500    735.4113    166.5275     76.0050     31.9602   7711.3584  61533.9609     67.6786      0.0572     12.9490     44.8383      0.0000   5173.4053
  7709.6916    -53.8700    786.1118    166.4052     76.0050     33.7804   7709.7168  61535.7813     67.6847      0.0082     12.3940     44.7250      0.0000   5441.9512
  7708.0250    -53.8700    763.9303    166.4052     75.8841     35.6102   7708.0752  61537.6094     67.5638      0.0060     11.8522     44.3080      0.0000   5753.9321
  7706.3584    -53.8700    736.9957    166.4358     76.0050     37.5202   7706.3584  61539.5195     67.6832     -0.0331     12.0425     43.8388      0.0000   6061.4209
  7704.6918    -53.8700    760.7615    166.4358     75.9445     39.3506   7704.7085  61541.3477     67.6227     -0.0114     12.3709     44.6044      0.0000   6326.9375
  7703.0252    -54.1200    760.7615    166.4969     75.9747     41.1902   7703.0581  61543.1875     67.6499      0.0275     12.6007     44.4124      0.0000   6639.4443
  7701.3586    -54.0000    773.4366    166.4664     75.9747     43.0702   7701.3667  61545.0703     67.6514     -0.0130     12.2845     43.9874      0.0000   6948.2163
  7699.6920    -53.8700    763.9303    166.4052     75.9747     44.9102   7699.7168  61546.9102     67.6545     -0.0345     11.2564     43.6914      0.0000   7211.1152
  7698.0254    -54.0000    763.9303    166.4969     75.9445     46.7502   7698.0581  61548.7500     67.6197      0.0017     11.0106     43.7313      0.0000   7517.0620
  7696.3588    -53.7500    741.7488    166.5887     75.8841     48.6404   7696.3584  61550.6406     67.5546      0.0375     11.5137     43.2550      0.0000   7821.4507
  7694.6922    -54.1200    746.5020    166.3746     75.9445     50.4706   7694.7168  61552.4688     67.6258      0.0174     11.9893     43.1995      0.0000   8080.4722
  7693.0256    -54.0000    744.9176    166.4969     75.9445     52.3102   7693.0581  61554.3086     67.6197     -0.0623     11.4361     43.4287      0.0000   8383.9824
  7691.3590    -53.8700    759.1771    166.4664     75.9445     54.2009   7691.3584  61556.1992     67.6212      0.0333     11.1092     43.1200      0.0000   8687.0928
  7689.6924    -54.0000    767.0991    166.4664     75.9143     56.0502   7689.7085  61558.0508     67.5910      0.0305     12.1402     42.8080      0.0000   8944.3662
  7688.0258    -53.8700    754.4240    166.4969     75.8539     57.8811   7688.0581  61559.8789     67.5290      0.0151     12.8231     44.1680      0.0000   9248.1357
  7686.3592    -54.0000    757.5927    167.1086     75.7028     59.7603   7686.3667  61561.7578     67.3474     -0.0317     12.8110     47.6108      0.0000   9570.6250
  7684.6926    -54.2500    751.2552    166.6193     75.9445     61.6002   7684.7085  61563.5977     67.6136      0.0212     12.7243     48.3776      0.0000   9860.9150
  7683.0260    -53.7500    741.7488    166.5887     75.9747     63.4502   7683.0581  61565.4492     67.6453      0.1335     12.7361     47.4683      0.0000  10194.8076
  7681.3594    -53.7500    770.2679    166.5275     75.9445     65.3403   7681.3667  61567.3398     67.6181     -0.0641     13.3982     48.3545      0.0000  10530.5977
  7679.6928    -53.6200    765.5147    166.4052     75.9445     67.1902   7679.7085  61569.1875     67.6243      0.0444     13.6051     48.0195      0.0000  10820.2988
  7678.0262    -53.7500    743.3333    166.5887     75.9445     69.0202   7678.0581  61571.0195     67.6151      0.0224     13.3066     46.8366      0.0000  11151.2998
  7676.3596    -54.1200    754.4240    166.5275     75.8539     70.9103   7676.3750  61572.9102     67.5275     -0.0232     12.2740     47.0269      0.0000  11479.4375
  7674.6930    -53.8700    752.8395    166.5581     75.9445     72.7706   7674.7085  61574.7695     67.6166     -0.0095     11.9642     46.4034      0.0000  11760.1836
  7673.0264    -53.7500    748.0864    166.6499     75.8841     74.6003   7673.0669  61576.5977     67.5516      0.0148     12.3231     45.3097      0.0000  12079.8447
  7671.3598    -53.7500    762.3459    166.7110     75.9143     76.4902   7671.3584  61578.4883     67.5788     -0.0066     11.9072     45.5872      0.0000  12397.6240
  7669.6932    -54.0000    767.0991    166.6193     75.8841     78.3102   7669.7168  61580.3086     67.5531      0.0020     12.1827     45.7891      0.0000  12672.2930
  7668.0266    -54.0000    743.3333    166.6193     75.9143     80.1502   7668.0669  61582.1484     67.5833      0.0233     12.1879     44.6847      0.0000  12988.9482
  7666.3600    -53.7500    733.8269    166.6193     75.9747     82.0702   7666.3584  61584.0703     67.6438     -0.0011     11.5183     43.8056      0.0000  13297.6064
  7664.6934    -53.6200    744.9176    166.5887     75.8841     83.9003   7664.7085  61585.8984     67.5546     -0.0258     11.3921     43.7775      0.0000  13560.1328
  7663.0268    -53.7500    760.7615    166.5581     75.8841     85.7402   7663.0669  61587.7383     67.5562     -0.0589     11.3266     43.9552      0.0000  13867.2725
  7661.3602    -53.8700    748.0864    166.5581     75.9445     87.6402   7661.3584  61589.6406     67.6166     -0.1279     12.1715     44.5147      0.0000  14176.8291
  7659.6936    -53.8700    754.4240    166.5887     75.8841     89.4702   7659.7168  61591.4688     67.5546     -0.0240     12.6563     45.2900      0.0000  14446.5752
  7658.0270    -53.7500    733.8269    166.5581     75.9143     91.3303   7658.0581  61593.3281     67.5864     -0.0153     12.4515     46.4216      0.0000  14767.9697
