~Version Information
VERS.                            2.0: CWLS Log ASCII STANDARD - VERSION 2.0
WRAP.                             NO: One line per depth step
~Well Information
STRT.FT                    7736.3572: FIRST INDEX VALUE
STOP.FT                    5891.4310: LAST INDEX VALUE
STEP.FT                      -1.6666: STEP
NULL.                      -999.2500: NULL VALUE
COMP.                REPUBLIC INDUSTRIAL LLC: COMPANY
WELL.                       WDW #316: WELL
FLD.                 JESSE SINCLAIR PLANT: FIELD
LOC.                              --: LOCATION
CNTY.                        LIBERTY: COUNTY
DATE.                Mon Nov 28 19-05-02 2022: LOG DATE
STAT.                          TEXAS: STATE
~Curve Information
DEPT.FT                  0 000 00 00: Depth
LSPD.FT/MIN                        0: Line Speed
LTEN.LB                            0: Surface Line Tension
TCURR.MA                           0: Tool Current
TVOLT.V                            0: Tool Voltage
ELTIM.SEC                          0: Elapsed Time
ADPTH.FT                           0: Actual Depth
TOD.SEC                            0: Time of Day
HVOLTA.V                           0: Head Voltage Apparent
CCL.                               0: Casing Collar Locator
DET1.GAPI                          0: Tracer Detector 1
DET2.GAPI                          0: Tracer Detector 2
EJECT.                             0: Ejector Actuation
AREA.                              0: Area under Detector
~Parameter Information
BHTEMP_Src.                   1.0000: BHTEMP Input Source Selector
TUBEOD.IN                     2.0000: Tubing O.D.
TUBEID.IN                     1.7000: Tubing I.D.
CASEID.IN                     5.0120: Casing I.D.
SRFTEMP.DEGF                  0.0000: Surface Temperature
CASETHCK.IN                   0.0000: Casing Thickness
CASEOD.IN                     5.5000: Casing O.D.
MinAPIWall.IN                 0.0000: Perforation Flag
TDEPTH.FT                     0.0000: Total Depth
BOTTEMP.DEGF                100.0000: Bottom Hole Temperature
BOREID.IN                     7.8750: Borehole I.D.
~A  Depth       LSPD        LTEN       TCURR       TVOLT       ELTIM       ADPTH        TOD        HVOLTA       CCL         DET1        DET2       EJECT        AREA    
# ...
  6776.3956    -57.0000    591.2318    166.8333     75.9445   1025.6310   6776.4248  62527.6289     67.6029     -0.0174     13.4014     45.6350      0.0000 180704.5781
  6774.7290    -57.7500    569.0503    166.8639     75.9143   1027.3402   6774.7583  62529.3398     67.5711     -0.0105     13.4874     47.8324      0.0000 181033.5313
  6773.0624    -58.1200    589.6474    166.8639     75.9143   1029.0902   6773.0581  62531.0898     67.5711     -0.0024     13.5707     48.7994      0.0000 181371.9219
  6771.3958    -58.1200    586.4786    166.8028     75.8237   1030.7903   6771.4248  62532.7891     67.4835     -0.0082     13.5983     50.4668      0.0000 181670.5313
  6769.7292    -58.0000    586.4786    166.8639     75.8539   1032.5103   6769.7583  62534.5078     67.5107      0.0023     13.5590     50.0413      0.0000 182024.5938
  6768.0626    -57.8700    586.4786    167.2309     75.7934   1034.2703   6768.0669  62536.2695     67.4319     -0.0067     14.1786     47.6503      0.0000 182364.3281
  6766.3960    -57.7500    584.8942    166.9251     75.8841   1035.9702   6766.4165  62537.9688     67.5378      0.0012     14.5616     47.4826      0.0000 182649.3594
  6764.7294    -57.8700    562.7127    166.8945     75.8539   1037.6903   6764.7583  62539.6875     67.5091      0.1534     14.9887     46.6932      0.0000 182978.7813
  6763.0628    -58.0000    586.4786    166.8028     75.9445   1039.4502   6763.0581  62541.4492     67.6044     -0.0024     14.6768     47.0190      0.0000 183305.9219
  6761.3962    -58.2500    581.7254    166.8945     75.8539   1041.1503   6761.4082  62543.1484     67.5091     -0.0111     13.2383     47.7874      0.0000 183591.0938
  6759.7296    -58.5000    580.1411    166.8639     75.8539   1042.8202   6759.7583  62544.8203     67.5107      0.0056     13.3716     47.0792      0.0000 183923.5469
  6758.0630    -58.7500    580.1411    166.8333     75.8841   1044.5703   6758.0669  62546.5703     67.5424     -0.0130     13.3810     46.0430      0.0000 184249.0000
  6756.3964    -58.6200    578.5566    166.8639     75.8539   1046.2404   6756.4248  62548.2383     67.5107     -0.0131     12.8476     45.1712      0.0000 184522.0313
  6754.7298    -58.6200    575.3879    166.8028     75.8539   1047.9303   6754.7666  62549.9297     67.5137     -0.0006     12.2170     44.9301      0.0000 184836.8281
  6753.0632    -58.8700    575.3879    166.8945     75.9143   1049.6909   6753.0581  62551.6914     67.5696     -0.0137     12.3213     44.5892      0.0000 185150.2500
  6751.3966    -58.5000    570.6347    166.8639     75.9143   1051.4003   6751.4082  62553.3984     67.5711      0.0076     12.4120     45.0496      0.0000 185418.5938
  6749.7300    -57.7500    573.8035    166.8639     75.8539   1053.1102   6749.7583  62555.1094     67.5107      0.0111     12.3603     45.7837      0.0000 185738.1563
  6748.0634    -57.8700    570.6347    166.8945     75.8539   1054.8602   6748.0752  62556.8594     67.5091     -0.0038     12.5836     45.3025      0.0000 186056.1250
  6746.3968    -57.8700    573.8035    166.8639     75.8841   1056.6012   6746.4082  62558.6016     67.5409      0.0079     12.0288     45.3194      0.0000 186328.4219
  6744.7302    -57.2500    569.0503    166.8945     75.8841   1058.3303   6744.7583  62560.3281     67.5394     -0.0313     12.1482     45.0360      0.0000 186643.5469
  6743.0636    -57.0000    570.6347    166.8945     75.9143   1060.1202   6743.0669  62562.1211     67.5696      0.0044     12.8940     46.0292      0.0000 186963.1875
  6741.3970    -57.3700    569.0503    166.8945     75.8841   1061.8402   6741.4082  62563.8398     67.5394     -0.0194     13.4611     45.8262      0.0000 187238.8750
  6739.7304    -57.6200    567.4659    166.8639     75.9143   1063.5602   6739.7583  62565.5586     67.5711     -0.0026     13.3282     46.0961      0.0000 187560.1875
  6738.0638    -57.5000    565.8815    166.8028     75.9143   1065.3302   6738.0669  62567.3281     67.5742     -0.0092     12.7778     46.5686      0.0000 187885.2344
  6736.3972    -57.5000    565.8815    166.8333     75.8539   1067.0403   6736.4082  62569.0391     67.5122     -0.0056     12.6446     45.5508      0.0000 188161.7344
  6734.7306    -57.7500    570.6347    166.8333     75.9143   1068.7502   6734.7666  62570.7500     67.5726     -0.0070     12.5637     44.4458      0.0000 188475.3750
  6733.0640    -57.8700    567.4659    166.8639     75.9143   1070.5303   6733.0669  62572.5273     67.5711     -0.0021     12.0898     44.3414      0.0000 188785.8750
  6731.3974    -57.2500    581.7254    166.8333     75.8841   1072.2703   6731.4165  62574.2695     67.5424     -0.0014     12.3893     43.8458      0.0000 189050.5313
  6729.7308    -57.0000    580.1411    166.8333     75.9143   1073.9902   6729.7666  62575.9883     67.5726      0.0110     12.6776     44.2348      0.0000 189357.3906
  6728.0642    -57.1200    561.1284    166.8333     75.9143   1075.7703   6728.0581  62577.7695     67.5726     -0.0116     12.7200     46.0483      0.0000 189674.7813
  6726.3976    -57.2500    561.1284    167.0474     75.8841   1077.5002   6726.4082  62579.5000     67.5317     -0.0089     12.4907     46.0440      0.0000 189951.8281
  6724.7310    -57.3700    583.3098    166.8639     75.8237   1079.2202   6724.7666  62581.2188     67.4805     -0.0174     13.1872     45.2907      0.0000 190270.8906
  6723.0644    -57.5000    580.1411    166.8028     75.9143   1081.0203   6723.0581  62583.0195     67.5742     -0.0160     13.8222     46.1791      0.0000 190589.7656
  6721.3978    -57.1200    578.5566    166.8639     75.8841   1082.7502   6721.4082  62584.7500     67.5409     -0.0073     13.3557     48.9310      0.0000 190876.2969
  6719.7312    -57.0000    573.8035    166.8333     75.9143   1084.4703   6719.7666  62586.4688     67.5726     -0.0085     12.3535     48.9209      0.0000 191222.4063
  6718.0646    -57.5000    570.6347    166.8333     75.8841   1086.2609   6718.0581  62588.2617     67.5424     -0.0047     11.8000     44.9891      0.0000 191549.0313
  6716.3980    -57.2500    567.4659    166.8333     75.9747   1087.9902   6716.4082  62589.9883     67.6331      0.0002     13.1468     43.8731      0.0000 191813.5313
  6714.7314    -57.2500    564.2971    166.8639     75.9143   1089.7202   6714.7666  62591.7188     67.5711      0.0075     13.9953     45.3473      0.0000 192126.0156
  6713.0648    -57.1200    569.0503    166.8333     75.9143   1091.5203   6713.0581  62593.5195     67.5726      0.0012     13.8379     45.9299      0.0000 192446.3125
  6711.3982    -56.7500    583.3098    166.8028     75.8841   1093.2603   6711.4082  62595.2578     67.5439     -0.0002     13.7016     47.2756      0.0000 192725.9844
  6709.7316    -57.0000    557.9596    166.8028     75.8841   1094.9802   6709.7749  62596.9805     67.5439      0.0023     13.0452     47.0719      0.0000 193058.7344
  6708.0650    -57.2500    556.3752    166.8028     75.9143   1096.7803   6708.0581  62598.7773     67.5742     -0.0110     12.5143     45.3452      0.0000 193380.0000
  6706.3984    -57.2500    562.7127    166.8333     75.8841   1098.5002   6706.4082  62600.5000     67.5424     -0.0114     11.7692     45.6030      0.0000 193652.8594
  6704.7318    -57.1200    559.5439    166.8333     75.8841   1100.2302   6704.7666  62602.2305     67.5424      0.0047     12.1007     44.5735      0.0000 193968.9375
  6703.0652    -57.1200    569.0503    166.8333     75.9143   1102.0303   6703.0581  62604.0273     67.5726     -0.0156     13.4707     44.1797      0.0000 194277.8125
  6701.3986    -57.0000    573.8035    166.8333     75.8841   1103.7505   6701.4165  62605.7500     67.5424      0.0024     13.3885     45.7393      0.0000 194548.0469
  6699.7320    -57.3700    564.2971    166.8333     75.9143   1105.4902   6699.7583  62607.4883     67.5726      0.0020     12.4230     46.0265      0.0000 194870.8906
  6698.0654    -57.5000    562.7127    166.8945     75.9143   1107.2502   6698.0581  62609.2500     67.5696      0.0160     12.9099     46.3618      0.0000 195193.2188
