~Version Information
VERS.                            2.0: CWLS Log ASCII STANDARD - VERSION 2.0
WRAP.                             NO: One line per depth step
~Well Information
STRT.FT                    7736.3572: FIRST INDEX VALUE
STOP.FT                    5891.4310: LAST INDEX VALUE
STEP.FT                      -1.6666: STEP
NULL.                      -999.2500: NULL VALUE
COMP.                REPUBLIC INDUSTRIAL LLC: COMPANY
WELL.                       WDW #316: WELL
FLD.                 JESSE SINCLAIR PLANT: FIELD
LOC.                              --: LOCATION
CNTY.                        LIBERTY: COUNTY
DATE.                Mon Nov 28 19-05-02 2022: LOG DATE
STAT.                          TEXAS: STATE
~Curve Information
DEPT.FT                  0 000 00 00: Depth
LSPD.FT/MIN                        0: Line Speed
LTEN.LB                            0: Surface Line Tension
TCURR.MA                           0: Tool Current
TVOLT.V                            0: Tool Voltage
ELTIM.SEC                          0: Elapsed Time
ADPTH.FT                           0: Actual Depth
TOD.SEC                            0: Time of Day
HVOLTA.V                           0: Head Voltage Apparent
CCL.                               0: Casing Collar Locator
DET1.GAPI                          0: Tracer Detector 1
DET2.GAPI                          0: Tracer Detector 2
EJECT.                             0: Ejector Actuation
AREA.                              0: Area under Detector
~Parameter Information
BHTEMP_Src.                   1.0000: BHTEMP Input Source Selector
TUBEOD.IN                     2.0000: Tubing O.D.
TUBEID.IN                     1.7000: Tubing I.D.
CASEID.IN                     5.0120: Casing I.D.
SRFTEMP.DEGF                  0.0000: Surface Temperature
CASETHCK.IN                   0.0000: Casing Thickness
CASEOD.IN                     5.5000: Casing O.D.
MinAPIWall.IN                 0.0000: Perforation Flag
TDEPTH.FT                     0.0000: Total Depth
BOTTEMP.DEGF                100.0000: Bottom Hole Temperature
BOREID.IN                     7.8750: Borehole I.D.
~A  Depth       LSPD        LTEN       TCURR       TVOLT       ELTIM       ADPTH        TOD        HVOLTA       CCL         DET1        DET2       EJECT        AREA    
# ...
  7656.3604    -53.6200    730.6581    166.5275     75.9143     93.2202   7656.3584  61595.2188     67.5879      0.0049     12.4627     47.3074      0.0000  15097.0361
  7654.6938    -53.7500    727.4893    166.5275     75.9143     95.0502   7654.7168  61597.0508     67.5879     -0.0497     12.1107     47.1418      0.0000  15380.6113
  7653.0272    -53.8700    733.8269    166.5275     75.9143     96.8902   7653.0669  61598.8906     67.5879      0.0426     11.7599     46.9109      0.0000  15709.3604
  7651.3606    -53.7500    729.0737    166.5275     75.9747     98.8002   7651.3584  61600.8008     67.6484      0.0175     12.1620     46.5279      0.0000  16036.7939
  7649.6940    -53.3700    732.2425    166.5275     75.9143    100.6502   7649.7085  61602.6484     67.5879      0.0067     12.1460     45.7223      0.0000  16313.0195
  7648.0274    -53.3700    744.9176    166.4969     75.9143    102.4902   7648.0581  61604.4883     67.5895      0.0374     12.8740     46.2653      0.0000  16633.9688
  7646.3608    -53.8700    719.5674    166.5275     75.9143    104.3903   7646.3584  61606.3906     67.5879      0.0201     13.8175     46.8187      0.0000  16961.3145
  7644.6942    -53.8700    736.9957    166.5275     75.8841    106.2503   7644.7085  61608.2500     67.5577      0.0099     13.7855     46.1008      0.0000  17239.7598
  7643.0276    -53.3700    721.1517    166.5887     75.9747    108.1003   7643.0581  61610.0977     67.6453      0.0188     13.9912     45.8457      0.0000  17560.8184
  7641.3610    -53.3700    732.2425    166.5887     75.9143    110.0102   7641.3667  61612.0078     67.5849     -0.0093     13.1824     47.5011      0.0000  17886.8555
  7639.6944    -53.5000    732.2425    166.5887     75.9143    111.8603   7639.7085  61613.8594     67.5849     -0.1318     12.7457     49.6697      0.0000  18180.0703
  7638.0278    -53.5000    733.8269    166.5581     75.9445    113.7103   7638.0581  61615.7109     67.6166      0.0150     12.6175     49.1793      0.0000  18527.9355
  7636.3612    -53.5000    732.2425    166.4664     75.9445    115.6202   7636.3584  61617.6211     67.6212     -0.0079     12.7223     46.2964      0.0000  18860.6934
  7634.6946    -53.5000    729.0737    166.5581     75.9143    117.4602   7634.7168  61619.4609     67.5864     -0.0134     12.8734     46.1106      0.0000  19136.1855
  7633.0280    -53.3700    724.3206    166.5581     75.9747    119.3304   7633.0581  61621.3281     67.6468     -0.0073     12.6168     47.4128      0.0000  19465.1348
  7631.3614    -53.3700    740.1644    166.5887     75.9445    121.2303   7631.3584  61623.2305     67.6151      0.0043     13.0849     45.9930      0.0000  19792.3906
  7629.6948    -53.5000    736.9957    166.5275     75.9143    123.0810   7629.7085  61625.0781     67.5879      0.0220     12.8003     45.1618      0.0000  20064.6875
  7628.0282    -53.6200    717.9830    166.4664     75.8539    124.9202   7628.0669  61626.9180     67.5305     -0.0151     12.6966     46.3578      0.0000  20384.2188
  7626.3616    -53.3700    722.7361    166.6193     75.9143    126.8502   7626.3584  61628.8477     67.5833      0.0089     12.9004     48.8559      0.0000  20718.8984
  7624.6950    -53.3700    725.9049    166.5275     75.8841    128.7003   7624.7168  61630.6992     67.5577     -0.0069     12.8013     49.7067      0.0000  21015.7891
  7623.0284    -53.2500    730.6581    166.4969     75.9747    130.5603   7623.0581  61632.5586     67.6499     -0.0101     12.4061     49.9475      0.0000  21364.5488
  7621.3618    -53.3700    727.4893    166.4969     75.9445    132.4703   7621.3584  61634.4688     67.6197      0.0017     12.5880     50.1117      0.0000  21715.4199
  7619.6952    -53.3700    736.9957    166.4664     75.9445    134.3203   7619.7168  61636.3203     67.6212      0.0061     13.2897     48.1655      0.0000  22010.4316
  7618.0286    -53.3700    733.8269    166.5581     75.9445    136.2012   7618.0581  61638.1992     67.6166     -0.0044     12.8992     46.2917      0.0000  22338.0078
  7616.3620    -52.8700    732.2425    166.5581     75.8841    138.1102   7616.3584  61640.1094     67.5562     -0.0020     13.8098     47.2235      0.0000  22665.1875
  7614.6954    -53.0000    732.2425    166.4969     75.9445    139.9603   7614.7251  61641.9609     67.6197     -0.0020     13.7182     48.3486      0.0000  22952.2480
  7613.0288    -53.5000    730.6581    166.5275     75.9143    141.8202   7613.0581  61643.8203     67.5879      0.0258     13.4542     50.8535      0.0000  23300.2188
  7611.3622    -53.3700    735.4113    166.4969     75.9143    143.7404   7611.3667  61645.7383     67.5895     -0.0063     14.0926     51.8848      0.0000  23661.6328
  7609.6956    -53.1200    733.8269    166.5275     75.9143    145.6103   7609.7085  61647.6094     67.5879     -0.0134     14.1042     51.6977      0.0000  23972.9785
  7608.0290    -53.1200    741.7488    166.5581     75.8841    147.4602   7608.0581  61649.4609     67.5562     -0.0082     14.0287     49.1174      0.0000  24325.1602
  7606.3624    -53.2500    729.0737    166.4969     75.9143    149.3602   7606.3750  61651.3594     67.5895     -0.0182     13.8229     48.3586      0.0000  24664.1367
  7604.6958    -53.6200    741.7488    166.4969     75.8841    151.2303   7604.7085  61653.2305     67.5592     -0.0113     13.4872     49.1846      0.0000  24957.0273
  7603.0292    -53.3700    735.4113    166.4358     75.8237    153.0811   7603.0581  61655.0820     67.5019      0.0119     13.6355     49.6395      0.0000  25303.9023
  7601.3626    -53.0000    730.6581    166.9862     75.7632    155.0102   7601.3584  61657.0078     67.4139     -0.0230     13.8767     49.0938      0.0000  25649.4355
  7599.6960    -53.1200    732.2425    166.5887     75.8841    156.8603   7599.7085  61658.8594     67.5546      0.0246     14.0018     48.1555      0.0000  25940.9668
  7598.0294    -53.2500    735.4113    166.5887     75.9143    158.7203   7598.0669  61660.7188     67.5849      0.0160     15.1089     47.5224      0.0000  26274.4805
  7596.3628    -53.5000    732.2425    166.5581     75.9143    160.6312   7596.3584  61662.6289     67.5864     -0.0349     16.0169     49.5145      0.0000  26613.5020
  7594.6962    -53.2500    735.4113    166.4969     75.9747    162.4902   7594.7085  61664.4883     67.6499     -0.0220     16.0088     52.4353      0.0000  26920.8809
  7593.0296    -53.1200    732.2425    166.5275     75.9747    164.3602   7593.0669  61666.3594     67.6484     -0.0011     15.8774     53.6789      0.0000  27294.9883
  7591.3630    -53.3700    724.3206    166.5275     75.9445    166.2712   7591.3584  61668.2695     67.6181      0.0188     14.5136     53.5135      0.0000  27669.4922
  7589.6964    -53.3700    735.4113    166.6193     75.9445    168.1203   7589.7085  61670.1211     67.6136      0.0060     14.0084     53.3901      0.0000  27990.7969
  7588.0298    -53.2500    736.9957    166.5275     75.9747    169.9802   7588.0581  61671.9805     67.6484      0.0142     14.5750     52.3783      0.0000  28360.0234
  7586.3632    -53.1200    730.6581    166.5887     75.9143    171.9002   7586.3584  61673.8984     67.5849      0.0951     14.7148     52.4082      0.0000  28726.4570
  7584.6966    -53.1200    727.4893    166.5581     75.8841    173.7602   7584.7168  61675.7578     67.5562      0.0247     13.9991     51.9985      0.0000  29040.1582
  7583.0300    -53.2500    724.3206    166.5581     75.9445    175.6102   7583.0581  61677.6094     67.6166      0.0127     12.8910     49.9668      0.0000  29396.3652
  7581.3634    -53.1200    725.9049    166.5581     75.8841    177.5202   7581.3584  61679.5195     67.5562      0.0188     12.6848     49.3121      0.0000  29742.0020
  7579.6968    -53.5000    719.5674    166.6193     75.9445    179.3611   7579.7168  61681.3594     67.6136      0.0125     13.5407     49.2089      0.0000  30038.1992
  7578.0302    -54.8700    719.5674    166.5581     75.9445    181.1202   7578.0669  61683.1211     67.6166     -0.0290     14.1946     49.2359      0.0000  30380.8809
