~Version Information
VERS.                            2.0: CWLS Log ASCII STANDARD - VERSION 2.0
WRAP.                             NO: One line per depth step
~Well Information
STRT.FT                    7736.3572: FIRST INDEX VALUE
STOP.FT                    5891.4310: LAST INDEX VALUE
STEP.FT                      -1.6666: STEP
NULL.                      -999.2500: NULL VALUE
COMP.                REPUBLIC INDUSTRIAL LLC: COMPANY
WELL.                       WDW #316: WELL
FLD.                 JESSE SINCLAIR PLANT: FIELD
LOC.                              --: LOCATION
CNTY.                        LIBERTY: COUNTY
DATE.                Mon Nov 28 19-05-02 2022: LOG DATE
STAT.                          TEXAS: STATE
~Curve Information
DEPT.FT                  0 000 00 00: Depth
LSPD.FT/MIN                        0: Line Speed
LTEN.LB                            0: Surface Line Tension
TCURR.MA                           0: Tool Current
TVOLT.V                            0: Tool Voltage
ELTIM.SEC                          0: Elapsed Time
ADPTH.FT                           0: Actual Depth
TOD.SEC                            0: Time of Day
HVOLTA.V                           0: Head Voltage Apparent
CCL.                               0: Casing Collar Locator
DET1.GAPI                          0: Tracer Detector 1
DET2.GAPI                          0: Tracer Detector 2
EJECT.                             0: Ejector Actuation
AREA.                              0: Area under Detector
~Parameter Information
BHTEMP_Src.                   1.0000: BHTEMP Input Source Selector
TUBEOD.IN                     2.0000: Tubing O.D.
TUBEID.IN                     1.7000: Tubing I.D.
CASEID.IN                     5.0120: Casing I.D.
SRFTEMP.DEGF                  0.0000: Surface Temperature
CASETHCK.IN                   0.0000: Casing Thickness
CASEOD.IN                     5.5000: Casing O.D.
MinAPIWall.IN                 0.0000: Perforation Flag
TDEPTH.FT                     0.0000: Total Depth
BOTTEMP.DEGF                100.0000: Bottom Hole Temperature
BOREID.IN                     7.8750: Borehole I.D.
~A  Depth       LSPD        LTEN       TCURR       TVOLT       ELTIM       ADPTH        TOD        HVOLTA       CCL         DET1        DET2       EJECT        AREA    
# ...
  6936.3892    -57.0000    675.2045    166.8333     75.8237    858.0003   6936.4165  62360.0000     67.4820     -0.0053     12.9224     47.4724      0.0000 150883.8125
  6934.7226    -56.8700    675.2045    167.1391     75.7028    859.7803   6934.7085  62361.7773     67.3458      0.0002     12.9839     49.0401      0.0000 151224.6719
  6933.0560    -57.0000    681.5420    166.9557     75.8237    861.5005   6933.0752  62363.5000     67.4759     -0.0009     12.1208     46.1501      0.0000 151557.4375
  6931.3894    -57.2500    681.5420    166.8028     75.7934    863.2502   6931.4082  62365.2500     67.4533     -0.6171     11.5466     46.0224      0.0000 151831.8438
  6929.7228    -57.1200    679.9576    166.8333     75.8841    865.0408   6929.7085  62367.0391     67.5424     -0.0323     11.6334     48.1989      0.0000 152163.2031
  6928.0562    -57.1200    679.9576    166.8333     75.8539    866.7702   6928.0752  62368.7695     67.5122      0.0052     12.4778     48.9392      0.0000 152503.9688
  6926.3896    -57.0000    675.2045    166.8333     75.9143    868.5103   6926.4082  62370.5078     67.5726     -0.0137     12.7606     48.8929      0.0000 152798.1406
  6924.7230    -57.1200    689.4639    166.8028     75.9143    870.2902   6924.7085  62372.2891     67.5742     -0.0127     12.8956     46.9667      0.0000 153133.2500
  6923.0564    -56.7500    686.2952    166.8639     75.8841    872.0403   6923.0669  62374.0391     67.5409     -0.0105     13.0880     45.7687      0.0000 153456.3438
  6921.3898    -56.8700    686.2952    166.8333     75.8841    873.7802   6921.4082  62375.7773     67.5424      0.0226     12.6303     46.1374      0.0000 153731.2500
  6919.7232    -56.7500    684.7108    166.8639     75.8841    875.5711   6919.7168  62377.5703     67.5409     -0.0043     12.5851     48.5550      0.0000 154064.2969
  6918.0566    -57.0000    672.0356    166.8028     75.8539    877.2902   6918.0669  62379.2891     67.5137     -0.0063     13.6337     46.5757      0.0000 154398.9219
  6916.3900    -57.1200    672.0356    166.7722     75.9143    879.0402   6916.4082  62381.0391     67.5757     -0.0137     13.0548     45.2112      0.0000 154672.1250
  6914.7234    -57.1200    687.8796    166.7416     75.8841    880.8203   6914.7085  62382.8203     67.5470      0.0050     12.8817     45.2511      0.0000 154989.0781
  6913.0568    -57.0000    687.8796    166.7722     75.8539    882.5602   6913.0581  62384.5586     67.5153     -0.0084     13.7323     45.3650      0.0000 155305.5000
  6911.3902    -56.7500    683.1264    166.8333     75.9445    884.3011   6911.4082  62386.3008     67.6029     -0.0093     13.4623     46.8265      0.0000 155582.5313
  6909.7236    -57.1200    676.7888    166.8028     75.8841    886.0703   6909.7168  62388.0703     67.5439     -0.0023     12.8499     46.4365      0.0000 155910.8750
  6908.0570    -57.2500    686.2952    166.8028     75.8841    887.8203   6908.0669  62389.8203     67.5439     -0.0070     12.2854     45.8775      0.0000 156231.8750
  6906.3904    -57.0000    684.7108    166.7416     75.9445    889.5502   6906.4082  62391.5508     67.6074     -0.0101     12.6323     47.5511      0.0000 156512.6563
  6904.7238    -57.0000    683.1264    166.8028     75.9143    891.3502   6904.7168  62393.3477     67.5742     -0.0111     12.9724     47.7266      0.0000 156848.4375
  6903.0572    -56.8700    681.5420    166.8639     75.9143    893.0802   6903.0581  62395.0781     67.5711      0.0214     12.7634     45.6451      0.0000 157174.1094
  6901.3906    -56.7500    681.5420    166.8028     75.9445    894.8102   6901.4082  62396.8086     67.6044      0.0046     12.9698     45.0423      0.0000 157445.1563
  6899.7240    -57.3700    659.3605    166.8333     75.9143    896.5902   6899.7085  62398.5898     67.5726      0.0061     12.7385     45.2352      0.0000 157761.0000
  6898.0574    -57.3700    681.5420    166.8333     75.8841    898.3403   6898.0581  62400.3398     67.5424      0.0006     12.3866     46.3943      0.0000 158081.8281
  6896.3908    -56.8700    678.3732    166.8028     75.8539    900.0703   6896.4082  62402.0703     67.5137      0.0125     12.9112     46.8663      0.0000 158362.2813
  6894.7242    -57.1200    686.2952    166.8028     75.9143    901.8502   6894.7251  62403.8477     67.5742     -0.0200     13.1384     47.2141      0.0000 158691.8594
  6893.0576    -57.0000    686.2952    167.0168     75.8539    903.5802   6893.0669  62405.5781     67.5030     -0.0102     12.8069     47.1188      0.0000 159021.6094
  6891.3910    -57.1200    665.6981    166.8945     75.9143    905.3112   6891.4165  62407.3086     67.5696     -0.0179     12.4451     48.4027      0.0000 159308.1719
  6889.7244    -57.1200    664.1137    166.8639     75.9143    907.1002   6889.7168  62409.0977     67.5711     -0.0200     11.9382     50.1337      0.0000 159654.6875
  6888.0578    -57.0000    662.5293    166.8028     75.9143    908.8502   6888.0581  62410.8477     67.5742     -0.0323     11.4100     49.1559      0.0000 160003.4688
  6886.3912    -57.0000    687.8796    166.8333     75.8539    910.5802   6886.4082  62412.5781     67.5122     -0.0090     11.0034     47.3034      0.0000 160291.8438
  6884.7246    -57.1200    681.5420    166.8028     75.8539    912.3602   6884.7168  62414.3594     67.5137      0.0075     11.4746     45.1368      0.0000 160614.2969
  6883.0580    -57.3700    694.2171    166.8639     75.9747    914.0802   6883.0581  62416.0781     67.6315     -0.0279     12.7743     44.1736      0.0000 160925.2344
  6881.3914    -57.5000    659.3605    166.8639     75.9143    915.8103   6881.4165  62417.8086     67.5711     -0.0192     13.0979     45.0375      0.0000 161192.3906
  6879.7248    -57.3700    654.6074    166.8639     75.8539    917.6002   6879.7085  62419.5977     67.5107     -0.0171     13.0075     47.6935      0.0000 161518.4531
  6878.0582    -57.0000    659.3605    166.8639     75.9143    919.3303   6878.0581  62421.3281     67.5711     -0.0043     13.2961     47.2398      0.0000 161852.7969
  6876.3916    -57.1200    660.9449    166.8333     75.8841    921.0602   6876.4165  62423.0586     67.5424     -0.0031     13.4849     46.0763      0.0000 162131.3594
  6874.7250    -57.0000    665.6981    166.8639     75.9445    922.7906   6874.7583  62424.7891     67.6013     -0.0041     13.5889     46.5951      0.0000 162455.6875
  6873.0584    -57.0000    664.1137    166.8028     75.9143    924.5902   6873.0581  62426.5898     67.5742     -0.0095     13.1266     46.6541      0.0000 162782.1719
  6871.3918    -57.1200    665.6981    166.7722     75.8237    926.3102   6871.4248  62428.3086     67.4850      0.0034     12.8025     46.8261      0.0000 163062.7188
  6869.7252    -56.8700    664.1137    166.8639     75.8841    928.0502   6869.7666  62430.0508     67.5409      0.0011     13.4691     48.0899      0.0000 163394.1406
  6868.0586    -57.1200    656.1918    166.7722     75.8841    929.8303   6868.0581  62431.8281     67.5455      0.0002     13.3417     48.7077      0.0000 163735.9375
  6866.3920    -57.5000    683.1264    166.8639     75.9143    931.5606   6866.4165  62433.5586     67.5711     -0.0040     12.6582     46.9047      0.0000 164021.4063
  6864.7254    -57.3700    659.3605    166.8028     75.8841    933.2902   6864.7583  62435.2891     67.5439     -0.0046     12.5155     47.1011      0.0000 164349.9844
  6863.0588    -57.1200    662.5293    166.8639     75.8841    935.0702   6863.0581  62437.0703     67.5409      0.0162     13.4786     46.5714      0.0000 164677.7344
  6861.3922    -57.3700    662.5293    166.8639     75.9143    936.8002   6861.4248  62438.8008     67.5711      0.0084     13.5138     46.6546      0.0000 164957.2813
  6859.7256    -56.8700    664.1137    166.8028     75.8841    938.5302   6859.7583  62440.5273     67.5439     -0.0217     13.0469     46.3121      0.0000 165283.0625
  6858.0590    -57.2500    641.9323    166.8333     75.8539    940.3102   6858.0581  62442.3086     67.5122     -0.0002     13.4212     45.2737      0.0000 165602.9531
